[
	{
		"province": "Hồ Chí Minh",
		"districts": [
			{
				"district": "Quận 2",
				"offices": [
					{
						"name": "Công Ty TNHH Bảo Gia Trường Thịnh",
						"latitude": "10.787717",
						"longtitude": "106.7627469",
						"tel": [
							{
								"region": "",
								"number": "(08) 6281 9106",
								"type": ""
							}
						],
						"address": "Số 689 Nguyễn Duy Trinh, Khu phố 4, P. Bình Trưng Đông",
						"fax": "(08) 6281 9107",
						"members": []
					}
				]
			},
			{
				"district": "Quận 3",
				"offices": [
					{
						"name": "Công Ty TNHH Một Thành Viên Hiệp Tâm",
						"latitude": "",
						"longtitude": "",
						"tel": [
							{
								"region": "",
								"number": "(08) 3848 3773",
								"type": ""
							}
						],
						"address": "321 Nam kỳ Khởi Nghĩa, P. 7",
						"fax": "(08) 3848 3436",
						"members": []
					}
				]
			},
			{
				"district": "Quận 4",
				"offices": [
					{
						"name": "Công Ty TNHH Một Thành Viên Bảo Gia Phúc",
						"latitude": "",
						"longtitude": "",
						"tel": [
							{
								"region": "",
								"number": "(08) 3943 5600",
								"type": ""
							}
						],
						"address": "Số 39 Hoàng Diệu, P. 12",
						"fax": "(08) 3943 5603",
						"members": []
					}
				]
			},
			{
				"district": "Quận 5",
				"offices": [
					{
						"name": "Công Ty TNHH Phát Trường Thịnh",
						"latitude": "",
						"longtitude": "",
						"tel": [
							{
								"region": "",
								"number": "(08) 3924 6299",
								"type": ""
							}
						],
						"address": "Số 35 Nguyễn Tri Phương, P. 6",
						"fax": "(08) 3924 6219",
						"members": []
					}
				]
			},
			{
				"district": "Quận 6",
				"offices": [
					{
						"name": "Công Ty TNHH Một Thành Viên Phú Hồng An",
						"latitude": "",
						"longtitude": "",
						"tel": [
							{
								"region": "",
								"number": "(08) 6293 2724",
								"type": ""
							},
							{
								"region": "",
								"number": "(08) 6293 2725",
								"type": ""
							}
						],
						"address": "Số 299 Bình Tiên, P. 8",
						"fax": "(08) 3854 1741",
						"members": []
					}
				]
			},
			{
				"district": "Quận 7",
				"offices": [
					{
						"name": "Công Ty TNHH Một Thành Viên Tín và Thành An",
						"latitude": "",
						"longtitude": "",
						"tel": [
							{
								"region": "",
								"number": "(08) 3771 3437",
								"type": ""
							}
						],
						"address": "1339 Huỳnh Tấn Phát, P Phú Thuận, Quận 7",
						"fax": "(08) 3771 3400",
						"members": []
					}
				]
			},
			{
				"district": "Quận 8",
				"offices": [
					{
						"name": "Công ty TNHH DA7 Bình Chánh",
						"latitude": "10.7418731",
						"longtitude": "106.6612729",
						"tel": [],
						"address": "1011 Phạm Thế Hiển, phường 5",
						"fax": "",
						"members": []
					}
				]
			},
			{
				"district": "Quận 9",
				"offices": [
					{
						"name": "Công Ty TNHH Thành Tài-Chi Nhánh tại Quận 9",
						"latitude": "",
						"longtitude": "",
						"tel": [
							{
								"region": "",
								"number": "(08) 3736 0039",
								"type": ""
							}
						],
						"address": "436A đường Lê Văn Việt, Phường Tăng Nhơn Phú A",
						"fax": "(08) 3736 0102",
						"members": []
					}
				]
			},
			{
				"district": "Quận 10",
				"offices": [
					{
						"name": "Công Ty TNHH Phú Hồng Hà",
						"latitude": "",
						"longtitude": "",
						"tel": [
							{
								"region": "",
								"number": "(08) 38300150",
								"type": ""
							}
						],
						"address": "Số 139 Đường 3/2, P11, Quận 10",
						"fax": "(08) 38300193",
						"members": []
					}
				]
			},
			{
				"district": "Quận 11",
				"offices": [
					{
						"name": "Công Ty TNHH Một Thành Viên Đương Hoàng Kim",
						"latitude": "",
						"longtitude": "",
						"tel": [
							{
								"region": "",
								"number": "(08) 3975 3961",
								"type": ""
							}
						],
						"address": "342 Lạc Long Quân, P. 5",
						"fax": "(08) 3975 3962",
						"members": []
					}
				]
			},
			{
				"district": "Quận 12",
				"offices": [
					{
						"name": "Cty TNHH một thành viên Thiên Bảo Sơn",
						"latitude": "",
						"longtitude": "",
						"tel": [
							{
								"region": "",
								"number": "(08) 3719 2934",
								"type": ""
							},
							{
								"region": "",
								"number": "(08) 3719 2935",
								"type": ""
							},
							{
								"region": "",
								"number": "(08) 3719 2936",
								"type": ""
							}
						],
						"address": "92 Phan Văn Hớn, P . Tân Thới Nhất, Quận 12",
						"fax": "",
						"members": []
					}
				]
			},
			{
				"district": "Quận Bình Thạnh",
				"offices": [
					{
						"name": "Công Ty TNHH Một Thành Viên Phú Trường Xuân",
						"latitude": "",
						"longtitude": "",
						"tel": [
							{
								"region": "",
								"number": "(08) 38410914",
								"type": ""
							}
						],
						"address": "146 Nơ Trang Long, P14",
						"fax": "(08) 38410905",
						"members": []
					}
				]
			},
			{
				"district": "Quận Bình Tân",
				"offices": [
					{
						"name": "Chi nhánh Công Ty TNHH Một Thành Viên Phú Trường Xuân",
						"latitude": "",
						"longtitude": "",
						"tel": [
							{
								"region": "",
								"number": "(08) 3877 8453",
								"type": ""
							}
						],
						"address": "342A Tân Hòa Đông, khu phố 12, P. Bình Trị Đông",
						"fax": "(08) 3877 8436",
						"members": []
					},
					{
						"name": "Công Ty TNHH A35 Bình Tân",
						"latitude": "",
						"longtitude": "",
						"tel": [
							{
								"region": "",
								"number": "(08) 3961 1898",
								"type": ""
							}
						],
						"address": "135/24 Lê Văn Quới, KP.2, P. Bình Trị Đông",
						"fax": "",
						"members": []
					}
				]
			},
			{
				"district": "Quận Gò Vấp",
				"offices": [
					{
						"name": "Công ty TNHH Phát Trường Thịnh - CN tại Gò Vấp",
						"latitude": "",
						"longtitude": "",
						"tel": [
							{
								"region": "",
								"number": "(08) 3894 3588",
								"type": ""
							},
							{
								"region": "",
								"number": "(08) 3894 3589",
								"type": ""
							},
							{
								"region": "",
								"number": "(08) 3894 3590",
								"type": ""
							}
						],
						"address": "A1, khu nhà 15-16 đường Phan Văn Trị, P. 7",
						"fax": "(08) 3894 3591",
						"members": []
					}
				]
			},
			{
				"district": "Quận Phú Nhuận",
				"offices": [
					{
						"name": "Công Ty TNHH Thành Tài-CN tại Phú Nhuận",
						"latitude": "",
						"longtitude": "",
						"tel": [
							{
								"region": "",
								"number": "(08) 3995 9939",
								"type": ""
							}
						],
						"address": "33Bis (bên trái) Phan Xích Long, P. 3",
						"fax": "(08) 3995 9940",
						"members": []
					},
					{
						"name": "Chi nhánh công ty TNHH MTV Đại lý bảo hiểm GL",
						"latitude": "",
						"longtitude": "",
						"tel": [
							{
								"region": "",
								"number": "(08) 39951168",
								"type": ""
							}
						],
						"address": "Số 384/16 Huỳnh Văn Bánh, P. 14",
						"fax": "",
						"members": []
					},
					{
						"name": "Chi nhánh – công ty TNHH Vy Nhân PT",
						"latitude": "",
						"longtitude": "",
						"tel": [
							{
								"region": "",
								"number": "0903620009",
								"type": ""
							}
						],
						"address": "38/6M1 Nguyễn Văn Trỗi, P.15",
						"fax": "",
						"members": []
					}
				]
			},
			{
				"district": "Quận Tân Bình",
				"offices": [
					{
						"name": "Công ty TNHH Một Thành Viên Tín và Thành An - CN Quận Tân Bình",
						"latitude": "",
						"longtitude": "",
						"tel": [
							{
								"region": "",
								"number": "(08) 3948 5294",
								"type": ""
							}
						],
						"address": "Số 102 Cộng Hòa, P. 4",
						"fax": "(08) 3811 7853",
						"members": []
					}
				]
			},
			{
				"district": "Quận Tân Phú",
				"offices": [
					{
						"name": "Công Ty TNHH Một Thành Viên Phú Tâm An Sài Gòn",
						"latitude": "",
						"longtitude": "",
						"tel": [
							{
								"region": "",
								"number": "(08) 3847 4283",
								"type": ""
							}
						],
						"address": "107B Gò Dầu, P. Tân Quý",
						"fax": "(08) 3847 4283",
						"members": []
					}
				]
			},
			{
				"district": "Quận Thủ Đức",
				"offices": [
					{
						"name": "Công Ty TNHH Bảo Gia Trường Thịnh - CN tại Thủ Đức",
						"latitude": "",
						"longtitude": "",
						"tel": [
							{
								"region": "",
								"number": "(08) 37225253",
								"type": ""
							}
						],
						"address": "87 Đặng Văn Bi, P. Trường Thọ",
						"fax": "(08) 37225251",
						"members": []
					},
					{
						"name": "Công ty TNHH EF4 Thiên Lộc",
						"latitude": "",
						"longtitude": "",
						"tel": [
							{
								"region": "",
								"number": "0911762277",
								"type": ""
							}
						],
						"address": "A4 Khu tái định cư 7/4A, đường Kha Vạn Cân, Tổ 7, KP.8, Phường Linh Đông",
						"fax": "",
						"members": []
					}
				]
			},
			{
				"district": "Huyện Bình Chánh",
				"offices": [
					{
						"name": "Chi nhánh công ty TNHH Một thành viên Phú Hồng An",
						"latitude": "",
						"longtitude": "",
						"tel": [
							{
								"region": "",
								"number": "(08) 6268 4010",
								"type": ""
							}
						],
						"address": "D6/5A, Ấp 4 , Xã Bình Chánh",
						"fax": "(08) 6268 4046",
						"members": []
					}
				]
			},
			{
				"district": "Huyện Củ Chi",
				"offices": [
					{
						"name": "Công ty TNHH Đại lý Bảo hiểm Đại Phúc - chi nhánh 1",
						"latitude": "",
						"longtitude": "",
						"tel": [
							{
								"region": "",
								"number": "(08) 3790 6645",
								"type": ""
							}
						],
						"address": "225 tỉnh lộ 8, Khu phố 3, Thị trấn Củ Chi",
						"fax": "(08) 3790 6648",
						"members": []
					}
				]
			},
			{
				"district": "Huyện Hóc Môn",
				"offices": [
					{
						"name": "Công Ty TNHH Đại Lý Bảo Hiểm Đại Phúc",
						"latitude": "",
						"longtitude": "",
						"tel": [
							{
								"region": "",
								"number": "(08) 6254 9559",
								"type": ""
							}
						],
						"address": "Số 155/3 Nguyễn Ảnh Thủ, Xã Trung Chánh",
						"fax": "(08) 3715 3950",
						"members": []
					}
				]
			}
		]
	},
	{
		"province": "Hà Nội",
		"districts": [
			{
				"district": "Quận Hà Đông",
				"offices": [
					{
						"name": "Doanh Nghiệp Tư Nhân An Thiện",
						"latitude": "",
						"longtitude": "",
						"tel": [
							{
								"region": "",
								"number": "(04) 6664 9161",
								"type": ""
							}
						],
						"address": "Số 65, TT20, Khu đô thị Văn Phú, P. Phú La",
						"fax": "(04) 6664 9160",
						"members": []
					}
				]
			},
			{
				"district": "Thị xã Sơn Tây",
				"offices": [
					{
						"name": "Doanh Nghiệp Tư Nhân Bình An",
						"latitude": "",
						"longtitude": "",
						"tel": [
							{
								"region": "",
								"number": "(04) 3383 0559",
								"type": ""
							}
						],
						"address": "363 Phố Chùa Thông, P. Sơn Lộc",
						"fax": "(04) 3383 0583",
						"members": []
					}
				]
			},
			{
				"district": "Huyện Đông Anh",
				"offices": [
					{
						"name": "Doanh Nghiệp Tư Nhân Bình An-CN tại Đông Anh",
						"latitude": "",
						"longtitude": "",
						"tel": [
							{
								"region": "",
								"number": "(04) 3965 4955",
								"type": ""
							}
						],
						"address": "Số 119 Phố Cao Lỗ, Xã Uy Nỗ",
						"fax": "(04) 3965 4965",
						"members": []
					}
				]
			},
			{
				"district": "Huyện Hoài Đức",
				"offices": [
					{
						"name": "Công Ty TNHH My Chúc",
						"latitude": "",
						"longtitude": "",
						"tel": [
							{
								"region": "",
								"number": "(04) 3386 2934",
								"type": ""
							}
						],
						"address": "Tỉnh lộ 423, thôn Ngãi Cầu, xã An Khánh",
						"fax": "(04) 3386 2935",
						"members": []
					}
				]
			},
			{
				"district": "Huyện Sóc Sơn",
				"offices": [
					{
						"name": "Công Ty TNHH Tư Vấn Việt Phúc",
						"latitude": "",
						"longtitude": "",
						"tel": [
							{
								"region": "",
								"number": "(04) 3595 5002",
								"type": ""
							}
						],
						"address": "Số 74 thôn Phù Mã, xã Phù Linh",
						"fax": "(04) 3595 5382",
						"members": []
					}
				]
			},
			{
				"district": "Huyện Thường Tín",
				"offices": [
					{
						"name": "Công Ty TNHH Tư Vấn Thiên Phúc",
						"latitude": "",
						"longtitude": "",
						"tel": [
							{
								"region": "",
								"number": "(04) 3385 3782",
								"type": ""
							}
						],
						"address": "102 phố Ga, Thị trấn Thường Tín",
						"fax": "(04) 3376 6562",
						"members": []
					}
				]
			},
			{
				"district": "Quận Hoàng Mai",
				"offices": [
					{
						"name": "Công Ty TNHH Dịch Vụ Phú Lai",
						"latitude": "",
						"longtitude": "",
						"tel": [
							{
								"region": "",
								"number": "(04) 3634 3200",
								"type": ""
							}
						],
						"address": "Tầng 2-Lô 2-3A đường Kim Đồng nối dài- Phường Hoàng Văn Thụ",
						"fax": "(04) 3634 3205",
						"members": []
					}
				]
			},
			{
				"district": "Quận Hoàn Kiếm",
				"offices": [
					{
						"name": "Công ty TNHH Phú Toàn Gia",
						"latitude": "",
						"longtitude": "",
						"tel": [
							{
								"region": "",
								"number": "(04) 3932 9755",
								"type": ""
							}
						],
						"address": "Số 877 đường Hồng Hà-P Chương Dương",
						"fax": "(04) 3932 9758",
						"members": []
					}
				]
			},
			{
				"district": "Quận Ba Đình",
				"offices": [
					{
						"name": "Công Ty TNHH Bảo Kim Ngân",
						"latitude": "",
						"longtitude": "",
						"tel": [
							{
								"region": "",
								"number": "(04) 3766 1616",
								"type": ""
							},
							{
								"region": "",
								"number": "(04) 32115282",
								"type": ""
							}
						],
						"address": "Tầng 3, tòa nhà Rublue, Số 223 phố Đội Cấn, P Đội Cấn",
						"fax": "(04) 3211 5344",
						"members": []
					}
				]
			},
			{
				"district": "Quận Hai Bà Trưng",
				"offices": [
					{
						"name": "Công Ty TNHH Nguyễn Loan - CN tại Hai Bà Trưng",
						"latitude": "",
						"longtitude": "",
						"tel": [
							{
								"region": "",
								"number": "(04) 3972 7423",
								"type": ""
							},
							{
								"region": "",
								"number": "(04) 3972 7424",
								"type": ""
							}
						],
						"address": "Số 194 Lạc Trung- Phường Vĩnh Tuy",
						"fax": "(04) 3972 7425",
						"members": []
					}
				]
			},
			{
				"district": "Quận Long Biên",
				"offices": [
					{
						"name": "Công Ty TNHH Nguyễn Loan",
						"latitude": "",
						"longtitude": "",
						"tel": [
							{
								"region": "",
								"number": "(04) 3652 3556",
								"type": ""
							}
						],
						"address": "Số 102 Nguyễn Văn Cừ, phường Bồ Đề",
						"fax": "(04) 3652 3560",
						"members": []
					}
				]
			},
			{
				"district": "Huyện Phú Xuyên",
				"offices": [
					{
						"name": "Công Ty TNHH Phú An Gia",
						"latitude": "",
						"longtitude": "",
						"tel": [
							{
								"region": "",
								"number": "(04) 3379 1929",
								"type": ""
							}
						],
						"address": "Thôn Nội Hợp, Xã Nam Phong",
						"fax": "(04) 3385 4456",
						"members": []
					}
				]
			},
			{
				"district": "Huyện Thạch Thất",
				"offices": [
					{
						"name": "Công Ty TNHH Phúc An Bình",
						"latitude": "",
						"longtitude": "",
						"tel": [
							{
								"region": "",
								"number": "(04) 3368 4446",
								"type": ""
							}
						],
						"address": "Khu Phố Liên Quan, Thị trấn Liên Quan",
						"fax": "(04) 3368 4445",
						"members": []
					}
				]
			},
			{
				"district": "Quận Đống Đa",
				"offices": [
					{
						"name": "Công Ty TNHH Tư Vấn Và Đầu Tư Phú Mỹ Thanh",
						"latitude": "",
						"longtitude": "",
						"tel": [
							{
								"region": "",
								"number": "(04) 3562 7355",
								"type": ""
							}
						],
						"address": "Số 250 đường Láng, P. Thịnh Quang",
						"fax": "(04) 3562 7356",
						"members": []
					}
				]
			},
			{
				"district": "Huyện Ba Vì",
				"offices": [
					{
						"name": "Chi nhánh DNTN Bình An",
						"latitude": "",
						"longtitude": "",
						"tel": [
							{
								"region": "",
								"number": "(04) 3396 0986",
								"type": ""
							}
						],
						"address": "Phố Mới, xã Chu Minh",
						"fax": "(04) 3396 0987",
						"members": []
					}
				]
			},
			{
				"district": "Huyện Mê Linh",
				"offices": [
					{
						"name": "Chi nhánh công ty TNHH Tư vấn Việt Phúc",
						"latitude": "",
						"longtitude": "",
						"tel": [
							{
								"region": "",
								"number": "(04) 3525 2385",
								"type": ""
							}
						],
						"address": "khu 10, Thôn Thường Lệ (cách địa chỉ cũ 3 số nhà), xã Đại Thịnh",
						"fax": "(04) 3525 2390",
						"members": []
					}
				]
			},
			{
				"district": "Quận Cầu Giấy",
				"offices": [
					{
						"name": "Chi nhánh Cầu Giấy Hà Nội - Công Ty TNHH Tư Vấn Thiên Phúc",
						"latitude": "",
						"longtitude": "",
						"tel": [
							{
								"region": "",
								"number": "(04) 3795 7254",
								"type": ""
							}
						],
						"address": "Số 9, Đường Hồ Tùng Mậu, P. Mai Dịch",
						"fax": "(04) 3795 7253",
						"members": []
					}
				]
			},
			{
				"district": "Huyện Đan Phượng",
				"offices": [
					{
						"name": "Chi nhánh Công Ty TNHH Phúc An Bình",
						"latitude": "",
						"longtitude": "",
						"tel": [
							{
								"region": "",
								"number": "(04) 3363 5635",
								"type": ""
							}
						],
						"address": "Số 130 Tây Sơn, Thị trấn Phùng",
						"fax": "(04) 3363 5636",
						"members": []
					}
				]
			},
			{
				"district": "Huyện Thanh Oai",
				"offices": [
					{
						"name": "Công Ty TNHH Tư Vấn Minh Châu Anh",
						"latitude": "",
						"longtitude": "",
						"tel": [
							{
								"region": "",
								"number": "(04) 3250 5580",
								"type": ""
							}
						],
						"address": "Nhà số 1, Phố Vác, Xã Dân Hòa",
						"fax": "(04) 3250 5580",
						"members": []
					}
				]
			},
			{
				"district": "Quận Tây Hồ",
				"offices": [
					{
						"name": "Công Ty TNHH Minh An Thịnh Phát",
						"latitude": "",
						"longtitude": "",
						"tel": [
							{
								"region": "",
								"number": "(04) 2240 1633",
								"type": ""
							}
						],
						"address": "Số 8, Ngõ 282, Đường Lạc Long Quân, Phường Bưởi",
						"fax": "",
						"members": []
					}
				]
			},
			{
				"district": "Huyện Phúc Thọ",
				"offices": [
					{
						"name": "Doanh nghiệp Tư nhân Bình An- Chi nhánh tại Phúc Thọ",
						"latitude": "",
						"longtitude": "",
						"tel": [
							{
								"region": "",
								"number": "(04) 3361 0061",
								"type": ""
							}
						],
						"address": "Khối 11, xã Võng Xuyên",
						"fax": "(04) 3361 0060",
						"members": []
					}
				]
			}
		]
	},
	{
		"province": "An Giang",
		"districts": [
			{
				"district": "Thành phố Long Xuyên",
				"offices": [
					{
						"name": "Công Ty TNHH Một Thành Viên An Phú Sinh",
						"latitude": "",
						"longtitude": "",
						"tel": [
							{
								"region": "",
								"number": "(076) 6252098",
								"type": ""
							}
						],
						"address": "Số 619/31 Trần Hưng Đạo, phường Bình Khánh",
						"fax": "(076) 6252094",
						"members": []
					}
				]
			},
			{
				"district": "Thị xã Châu Đốc",
				"offices": [
					{
						"name": "Công Ty TNHH Một Thành Viên Đại Lý Bảo Hiểm Nhân Thọ Phúc Tâm Gia",
						"latitude": "",
						"longtitude": "",
						"tel": [
							{
								"region": "",
								"number": "(076) 3562629",
								"type": ""
							}
						],
						"address": "116 Đường Trưng Nữ Vương - nối dài, Phường Châu Phú B",
						"fax": "(076) 3562669",
						"members": []
					}
				]
			},
			{
				"district": "Thị xã Tân Châu",
				"offices": [
					{
						"name": "VPGD Tổng đại lý Tân Châu AG của Prudential - Tỉnh An Giang",
						"latitude": "",
						"longtitude": "",
						"tel": [
							{
								"region": "",
								"number": "(076) 3536699",
								"type": ""
							}
						],
						"address": "Số  232 A, Tôn Đức Thắng, Khóm Long Thị D, Phường Long Thạnh",
						"fax": "(076) 3536689",
						"members": []
					}
				]
			},
			{
				"district": "Huyện Tri Tôn",
				"offices": [
					{
						"name": "Công Ty TNHH Một Thành Viên Đại Lý Bảo Hiểm Nhân Thọ Phúc Tâm Gia",
						"latitude": "",
						"longtitude": "",
						"tel": [
							{
								"region": "",
								"number": "(076) 3778099",
								"type": ""
							}
						],
						"address": "",
						"fax": "(076) 3778089",
						"members": []
					}
				]
			}
		]
	},
	{
		"province": "Bắc Giang",
		"districts": [
			{
				"district": "Huyện Lục Ngạn",
				"offices": [
					{
						"name": "Công Ty TNHH Một Thành Viên Tâm An Bình",
						"latitude": "",
						"longtitude": "",
						"tel": [
							{
								"region": "",
								"number": "(0240) 3 683 871",
								"type": ""
							}
						],
						"address": "Số nhà 82 Khu Trường Chinh, Thị trấn Chũ",
						"fax": "(0240) 3 683 873",
						"members": []
					}
				]
			},
			{
				"district": "Thành phố Bắc Giang",
				"offices": [
					{
						"name": "Công Ty TNHH Bảo Hiểm Thanh Nghị",
						"latitude": "",
						"longtitude": "",
						"tel": [
							{
								"region": "",
								"number": "(0240) 3 823 770",
								"type": ""
							}
						],
						"address": "Tầng 4, Tòa nhà số 2, Đường Nguyễn Thị Lưu, P. Trần Phú",
						"fax": "(0240) 3 823 775",
						"members": []
					}
				]
			},
			{
				"district": "Huyện Lục Nam",
				"offices": [
					{
						"name": "Công Ty TNHH Một Thành Viên Tâm An Bình-Chi nhánh Lục Nam",
						"latitude": "",
						"longtitude": "",
						"tel": [
							{
								"region": "",
								"number": "(0240) 3684688",
								"type": ""
							}
						],
						"address": "Phố Thanh Xuân, Thị trấn Đồi Ngô",
						"fax": "(0240) 3694688",
						"members": []
					}
				]
			},
			{
				"district": "Huyện Lạng Giang",
				"offices": [
					{
						"name": "Chi nhánh công ty TNHH Bảo hiểm Thanh Nghị",
						"latitude": "",
						"longtitude": "",
						"tel": [
							{
								"region": "",
								"number": "(0240) 3636777",
								"type": ""
							}
						],
						"address": "Khu 3 thị trấn Kép",
						"fax": "(0240) 3636677",
						"members": []
					}
				]
			},
			{
				"district": "Huyện Yên Dũng",
				"offices": [
					{
						"name": "Công ty TNHH An Tâm Phát Lộc",
						"latitude": "",
						"longtitude": "",
						"tel": [
							{
								"region": "",
								"number": "(0240) 3767677",
								"type": ""
							}
						],
						"address": "Thôn Chanh, xã Hương Gián",
						"fax": "",
						"members": []
					}
				]
			}
		]
	},
	{
		"province": "Bắc Kạn",
		"districts": [
			{
				"district": "Thị xã Bắc Kạn",
				"offices": [
					{
						"name": "Công Ty TNHH Bảo Hiểm Nhân Thọ Ngân Hà",
						"latitude": "",
						"longtitude": "",
						"tel": [
							{
								"region": "",
								"number": "(0281) 3 810 689",
								"type": ""
							}
						],
						"address": "Tổ 8, P. Phùng Chí Kiên, TX Bắc Kạn",
						"fax": "(0281) 3 810 679",
						"members": []
					}
				]
			}
		]
	},
	{
		"province": "Bạc Liêu",
		"districts": [
			{
				"district": "Thành phố Bạc Liêu",
				"offices": [
					{
						"name": "Công ty TNHH Một Thành Viên Phú Toàn Gia ",
						"latitude": "",
						"longtitude": "",
						"tel": [
							{
								"region": "",
								"number": "(0781) 3511999",
								"type": ""
							}
						],
						"address": "Số 103, đường Trần Huỳnh, Phường 7",
						"fax": "(0781) 3511777",
						"members": []
					}
				]
			}
		]
	},
	{
		"province": "Bắc Ninh",
		"districts": [
			{
				"district": "Thành phố Bắc Ninh",
				"offices": [
					{
						"name": "Công ty TNHH Tư vấn An Phúc Việt",
						"latitude": "",
						"longtitude": "",
						"tel": [
							{
								"region": "",
								"number": "(0241) 3870707",
								"type": ""
							}
						],
						"address": "Số 10LK1, đường Võ Cường 8, P. Võ Cường",
						"fax": "(0241) 3870708",
						"members": []
					}
				]
			},
			{
				"district": "Huyện Thuận Thành",
				"offices": [
					{
						"name": "Công Ty TNHH Bảo Phúc",
						"latitude": "",
						"longtitude": "",
						"tel": [
							{
								"region": "",
								"number": "(0241) 3 775 997",
								"type": ""
							}
						],
						"address": "Số 68 phố Đông Côi, Thị trấn Hồ, Huyện Thuận Thành",
						"fax": "(0241) 3 775 913",
						"members": []
					}
				]
			},
			{
				"district": "Huyện Tiên Du",
				"offices": [
					{
						"name": "Công ty TNHH Phú Quý An Lộc",
						"latitude": "",
						"longtitude": "",
						"tel": [
							{
								"region": "",
								"number": "(0241) 3711505",
								"type": ""
							}
						],
						"address": "Khu đất mới bãi Dé, xã Nội Duệ",
						"fax": "(0241) 3711506",
						"members": []
					}
				]
			}
		]
	},
	{
		"province": "Bến Tre",
		"districts": [
			{
				"district": "Thành phố Bến Tre",
				"offices": [
					{
						"name": "Công Ty TNHH Bảo Hiểm Nhân Thọ Định Thuận",
						"latitude": "",
						"longtitude": "",
						"tel": [
							{
								"region": "",
								"number": "(075) 3 815 855",
								"type": ""
							}
						],
						"address": "Số 201 C2 khu phố 6, đường Phan Đình Phùng, P. Phú Khương",
						"fax": "(075) 3 815 853",
						"members": []
					}
				]
			},
			{
				"district": "Huyện Mỏ Cày Nam",
				"offices": [
					{
						"name": "Công Ty TNHH Bảo Hiểm Nhân Thọ Định Thuận - CN tại Mỏ Cày Nam",
						"latitude": "",
						"longtitude": "",
						"tel": [
							{
								"region": "",
								"number": "(075) 3 663 113",
								"type": ""
							}
						],
						"address": "Ấp An Vĩnh 1, quốc lộ 57, tổ 4, xã Đa Phước Hội",
						"fax": "(075) 3 663 114",
						"members": []
					}
				]
			},
			{
				"district": "Huyện Ba Tri",
				"offices": [
					{
						"name": "Chi nhánh Công ty TNHH BHNT Định Thuận tại Ba Tri",
						"latitude": "",
						"longtitude": "",
						"tel": [
							{
								"region": "",
								"number": "(075) 3 763 277",
								"type": ""
							}
						],
						"address": "273, ấp An Lợi, xã An Bình Tây",
						"fax": "(075) 3 763 278",
						"members": []
					}
				]
			},
			{
				"district": "Huyện Chợ Lách",
				"offices": [
					{
						"name": "Công Ty TNHH Bảo Hiểm Nhân Thọ Định Thuận - Chi nhánh tại Chợ Lách",
						"latitude": "",
						"longtitude": "",
						"tel": [
							{
								"region": "",
								"number": "(075) 3872888",
								"type": ""
							}
						],
						"address": "Số 11/2A, Khu phố 1, Thị trấn Chợ Lách",
						"fax": "(075) 3571555",
						"members": []
					}
				]
			},
			{
				"district": "Huyện Châu Thành",
				"offices": [
					{
						"name": "Công ty TNHH Một Thành Viên Bảo hiểm Phú Lộc An",
						"latitude": "",
						"longtitude": "",
						"tel": [
							{
								"region": "",
								"number": "(075) 3610699",
								"type": ""
							}
						],
						"address": "Khu phố 2, Thị trấn Châu Thành",
						"fax": "",
						"members": []
					}
				]
			}
		]
	},
	{
		"province": "Bình Định",
		"districts": [
			{
				"district": "Huyện Phù Cát",
				"offices": [
					{
						"name": "Công Ty TNHH Bảo Hiểm Nhân Thọ Tuấn Đức",
						"latitude": "",
						"longtitude": "",
						"tel": [
							{
								"region": "",
								"number": "(056) 3 750 247",
								"type": ""
							}
						],
						"address": "Số 353 Quang Trung, Thị trấn Ngô Mây",
						"fax": "(056) 3 750 269",
						"members": []
					},
					{
						"name": "Công Ty TNHH Bảo Hiểm Phú An",
						"latitude": "",
						"longtitude": "",
						"tel": [
							{
								"region": "",
								"number": "(056) 2478008",
								"type": ""
							}
						],
						"address": "158 Trần Hưng Đạo, Thị trấn Ngô Mây",
						"fax": "",
						"members": []
					}
				]
			},
			{
				"district": "Huyện Tây Sơn",
				"offices": [
					{
						"name": "Công Ty TNHH Bảo Hiểm Nhân Thọ Hưng Lực",
						"latitude": "",
						"longtitude": "",
						"tel": [
							{
								"region": "",
								"number": "(056) 3 580 857",
								"type": ""
							}
						],
						"address": "Số 177, Trần Quang Diệu, Thị trấn Phú Phong",
						"fax": "(056) 3 580 849",
						"members": []
					}
				]
			},
			{
				"district": "Thị xã An Nhơn",
				"offices": [
					{
						"name": "Công Ty TNHH Một Thành Viên Đông Phương",
						"latitude": "",
						"longtitude": "",
						"tel": [
							{
								"region": "",
								"number": "(056) 3 835 939",
								"type": ""
							}
						],
						"address": "43-45 Nguyễn Đình Chiểu, phường Bình Định",
						"fax": "(056) 3 835 933",
						"members": []
					}
				]
			},
			{
				"district": "Thành phố Quy Nhơn",
				"offices": [
					{
						"name": "Công Ty TNHH Một Thành Viên An Trường Phú",
						"latitude": "",
						"longtitude": "",
						"tel": [
							{
								"region": "",
								"number": "(056) 3 828 799",
								"type": ""
							}
						],
						"address": "Số 592 đường Trần Hưng Đạo, P. Thị Nại",
						"fax": "(056) 3 828 678",
						"members": []
					},
					{
						"name": "Công Ty TNHH Bảo Hiểm Cửu Thái Vĩ",
						"latitude": "",
						"longtitude": "",
						"tel": [
							{
								"region": "",
								"number": "(056) 3535 686",
								"type": ""
							}
						],
						"address": "584 Nguyễn Thái Học, Phường Quang Trung",
						"fax": "",
						"members": []
					}
				]
			},
			{
				"district": "Huyện Hoài Nhơn",
				"offices": [
					{
						"name": "Cơ sở 2 - Công ty TNHH BHNT Tuấn Đức",
						"latitude": "",
						"longtitude": "",
						"tel": [
							{
								"region": "",
								"number": "(056) 3 561 499",
								"type": ""
							}
						],
						"address": "Số 122 Trần Hưng Đạo, Thị trấn Bồng Sơn",
						"fax": "(056) 3 961 239",
						"members": []
					},
					{
						"name": "Công ty TNHH Bảo Hiểm Nhật Thiên Phúc",
						"latitude": "",
						"longtitude": "",
						"tel": [
							{
								"region": "",
								"number": "(056) 3865 899",
								"type": ""
							}
						],
						"address": "Khối 5, đường Trần Phú, thị trấn Tam Quan",
						"fax": "",
						"members": []
					}
				]
			},
			{
				"district": "Huyện Phù Mỹ",
				"offices": [
					{
						"name": "Cơ sở 3 - Công ty TNHH Bảo hiểm nhân thọ Tuấn Đức",
						"latitude": "",
						"longtitude": "",
						"tel": [
							{
								"region": "",
								"number": "(056) 3555579",
								"type": ""
							},
							{
								"region": "",
								"number": "(056) 3555467",
								"type": ""
							}
						],
						"address": "Số 548 Quang Trung, thị trấn Phù Mỹ",
						"fax": "",
						"members": []
					}
				]
			}
		]
	},
	{
		"province": "Bình Dương",
		"districts": [
			{
				"district": "Huyện Dĩ An",
				"offices": [
					{
						"name": "Công Ty TNHH Một Thành Viên Phú Hưng Phúc",
						"latitude": "",
						"longtitude": "",
						"tel": [
							{
								"region": "",
								"number": "(0650) 3796215",
								"type": ""
							}
						],
						"address": "Số 70, đường M, khu Trung tâm Hành chinh, Phường Dĩ An, Thị xã Dĩ An",
						"fax": "(0650) 3796315",
						"members": []
					}
				]
			},
			{
				"district": "Huyện Phú Giáo",
				"offices": [
					{
						"name": "Công ty TNHH Một Thành Viên Thịnh Thuỷ",
						"latitude": "",
						"longtitude": "",
						"tel": [
							{
								"region": "",
								"number": "(0650) 3 675 076",
								"type": ""
							}
						],
						"address": "Số 140 đường Độc Lập, khu phố 2, thị trấn Phước Vĩnh",
						"fax": "(0650) 3 675 077",
						"members": []
					}
				]
			},
			{
				"district": "Thành phố Thủ Dầu Một",
				"offices": [
					{
						"name": "Công ty TNHH Một Thành Viên Thuận Nhân Tâm",
						"latitude": "",
						"longtitude": "",
						"tel": [
							{
								"region": "",
								"number": "(0650) 3 844 450",
								"type": ""
							}
						],
						"address": "Số 6, lô NP5, đường 30 tháng 4, P. Phú Hòa",
						"fax": "(0650) 3 844 451",
						"members": []
					}
				]
			},
			{
				"district": "Huyện Bến Cát",
				"offices": [
					{
						"name": "Chi nhánh công ty TNHH Một thành viên Nam Phú Thành Tài",
						"latitude": "",
						"longtitude": "",
						"tel": [
							{
								"region": "",
								"number": "(0650) 3 557 614",
								"type": ""
							}
						],
						"address": "C4-11, đường DA-11, làng Ruby Land, Thị trấn Mỹ Phước",
						"fax": "(0650) 3 557 615",
						"members": []
					}
				]
			},
			{
				"district": "Huyện Dầu Tiếng",
				"offices": [
					{
						"name": "Công ty TNHH Một thành viên Phú Lộc Tài",
						"latitude": "",
						"longtitude": "",
						"tel": [
							{
								"region": "",
								"number": "(0650) 3 519 696",
								"type": ""
							}
						],
						"address": "Số 20/1 Đường Thống Nhất, KP.3, Thị trấn Dầu Tiếng",
						"fax": "(0650) 3 519 699",
						"members": []
					},
					{
						"name": "Công ty TNHH Một thành viên Phú Lộc Tài-Chi nhánh tại Thanh Tuyền",
						"latitude": "",
						"longtitude": "",
						"tel": [
							{
								"region": "",
								"number": "(0650) 3531866",
								"type": ""
							}
						],
						"address": "Thửa đất 111, Tờ bản đồ số 14, Ấp Xóm Bưng, Xã Thanh Tuyền",
						"fax": "",
						"members": []
					}
				]
			},
			{
				"district": "Huyện Tân Uyên",
				"offices": [
					{
						"name": "Chi nhánh công ty TNHH Một thành viên Thuận Nhân Tâm",
						"latitude": "",
						"longtitude": "",
						"tel": [
							{
								"region": "",
								"number": "(0650) 3 642 619",
								"type": ""
							}
						],
						"address": "Số 174/C, tổ 4, khu phố 3, Thị trấn Uyên Hưng",
						"fax": "(0650) 3 642 618",
						"members": []
					}
				]
			},
			{
				"district": "Thị xã Thuận An",
				"offices": [
					{
						"name": "Chi nhánh Công Ty TNHH Một Thành Viên Phú Hưng Phúc",
						"latitude": "",
						"longtitude": "",
						"tel": [
							{
								"region": "",
								"number": "(0650) 3 662 040",
								"type": ""
							},
							{
								"region": "",
								"number": "(0650) 3 662 041",
								"type": ""
							}
						],
						"address": "Lô B, số 36, Khu phố Đông Tư, P. Lái Thiêu",
						"fax": "(0650) 3 662 042",
						"members": []
					}
				]
			},
			{
				"district": "Huyện Bàu Bàng",
				"offices": [
					{
						"name": "Công ty TNHH Một Thành Viên Nam Phú Thành Tài-Chi nhánh tại Bàu Bàng",
						"latitude": "",
						"longtitude": "",
						"tel": [
							{
								"region": "",
								"number": "(0650) 2221329",
								"type": ""
							}
						],
						"address": "Số 48, Lầu 2, Đường D13, Khu Công nghiệp & Đô thị Bàu Bàng, Xã Lai Uyên",
						"fax": "(0650) 2021530",
						"members": []
					}
				]
			}
		]
	},
	{
		"province": "Bình Phước",
		"districts": [
			{
				"district": "Thị xã Đồng Xoài",
				"offices": [
					{
						"name": "Công Ty TNHH Thành Tài",
						"latitude": "",
						"longtitude": "",
						"tel": [
							{
								"region": "",
								"number": "(0651) 3 885 385",
								"type": ""
							}
						],
						"address": "Số nhà 17, Quốc Lộ 14, P. Tân Phú",
						"fax": "(0651) 3 885 380",
						"members": []
					}
				]
			},
			{
				"district": "Huyện Phước Long",
				"offices": [
					{
						"name": "Công Ty TNHH Thành Tài-CN tại Phước Long",
						"latitude": "",
						"longtitude": "",
						"tel": [
							{
								"region": "",
								"number": "(0651) 3 773 775",
								"type": ""
							}
						],
						"address": "L/17, Đường ĐT759, KP.6",
						"fax": "(0651) 3 773 780",
						"members": []
					}
				]
			},
			{
				"district": "Huyện Chơn Thành",
				"offices": [
					{
						"name": "Công Ty TNHH Thành Tài - CN tại Chơn Thành",
						"latitude": "",
						"longtitude": "",
						"tel": [
							{
								"region": "",
								"number": "(0651) 366 0091",
								"type": ""
							}
						],
						"address": "Số 25 Tổ 1 Khu Phố 4 Thị Trấn Chơn Thành",
						"fax": "(0651) 366 0092",
						"members": []
					}
				]
			},
			{
				"district": "Thị trấn Đức Phong",
				"offices": [
					{
						"name": "Công ty TNHH Thành Tài - Chi nhánh Bù Đăng",
						"latitude": "",
						"longtitude": "",
						"tel": [
							{
								"region": "",
								"number": "(0651) 3 975 775",
								"type": ""
							}
						],
						"address": "Số nhà 240, Đường Quốc lộ 14, Khu Đức Lập",
						"fax": "(0651) 3 975 774",
						"members": []
					}
				]
			},
			{
				"district": "Thị xã Bình Long",
				"offices": [
					{
						"name": "Công ty TNHH Thành Tài - Chi nhánh Bình Long",
						"latitude": "",
						"longtitude": "",
						"tel": [
							{
								"region": "",
								"number": "(0651) 3 683 178",
								"type": ""
							}
						],
						"address": "Số 149 Nguyễn Huệ, khu phố Phú Trung, phường An Lộc",
						"fax": "(0651) 3 683 179",
						"members": []
					}
				]
			},
			{
				"district": "Huyện Bù Đốp",
				"offices": [
					{
						"name": "Công ty TNHH Thành Tài - Chi nhánh Bù Đốp",
						"latitude": "",
						"longtitude": "",
						"tel": [
							{
								"region": "",
								"number": "(0651) 3563 088",
								"type": ""
							}
						],
						"address": "Số nhà 61, Đường Nguyễn Huệ, KP. Thanh Bình, TT. Thanh Bình",
						"fax": "(0651) 3563 077",
						"members": []
					},
					{
						"name": "Công ty TNHH Thành Tài - Chi nhánh Đồng Phú",
						"latitude": "",
						"longtitude": "",
						"tel": [
							{
								"region": "",
								"number": "(0651) 3563 088",
								"type": ""
							}
						],
						"address": "Số 61 Nguyễn Huệ, TT. Thanh Bình",
						"fax": "(0651) 3563 077",
						"members": []
					}
				]
			},
			{
				"district": "Huyện Đồng Phú",
				"offices": [
					{
						"name": "Chi Nhánh Bình Phước Công ty TNHH Một thành viên Thịnh Thủy",
						"latitude": "",
						"longtitude": "",
						"tel": [
							{
								"region": "",
								"number": "(0651) 3871839",
								"type": ""
							}
						],
						"address": "308 Đường ĐT.741, Ấp Thái Dũng, Xã Tân Tiến",
						"fax": "",
						"members": []
					}
				]
			}
		]
	},
	{
		"province": "Bình Thuận",
		"districts": [
			{
				"district": "Thị xã La Gi",
				"offices": [
					{
						"name": "Công Ty TNHH Phú Hưng Thịnh",
						"latitude": "",
						"longtitude": "",
						"tel": [
							{
								"region": "",
								"number": "(062) 3 561 127",
								"type": ""
							}
						],
						"address": "Số 46 đường 234 phường Phước Hội",
						"fax": "(062) 3 561 128",
						"members": []
					}
				]
			},
			{
				"district": "Thành phố Phan Thiết",
				"offices": [
					{
						"name": "Công Ty TNHH Hiếu Đại Lộc",
						"latitude": "",
						"longtitude": "",
						"tel": [
							{
								"region": "",
								"number": "(062) 3 751 079",
								"type": ""
							}
						],
						"address": "31 Trần Hưng Đạo, khu phố 2, P. Phú Thủy",
						"fax": "(062) 3 751 077",
						"members": []
					}
				]
			},
			{
				"district": "Huyện Đức Linh",
				"offices": [
					{
						"name": "Công Ty TNHH Dương Phát Thịnh",
						"latitude": "",
						"longtitude": "",
						"tel": [
							{
								"region": "",
								"number": "(062) 3 510 313",
								"type": ""
							},
							{
								"region": "",
								"number": "(062) 3 510 414",
								"type": ""
							}
						],
						"address": "Số 279 Đường 32, Thị trấn Đức Tài",
						"fax": "(062) 3 510 515",
						"members": []
					}
				]
			},
			{
				"district": "Huyện Bắc Bình",
				"offices": [
					{
						"name": "Công ty TNHH Hồ Duy Phát",
						"latitude": "",
						"longtitude": "",
						"tel": [
							{
								"region": "",
								"number": "(062) 3 971 817",
								"type": ""
							},
							{
								"region": "",
								"number": "(062) 3 971 818",
								"type": ""
							},
							{
								"region": "",
								"number": "(062) 3 971 819",
								"type": ""
							}
						],
						"address": "Số 130 Quốc lộ 1A, Thôn Bình Long, Xã Phan Rí Thành",
						"fax": "(062) 3 971 820",
						"members": []
					},
					{
						"name": "Công Ty TNHH Hồ Duy Phát – Cơ Sở 2",
						"latitude": "",
						"longtitude": "",
						"tel": [
							{
								"region": "",
								"number": "(062) 3873078",
								"type": ""
							}
						],
						"address": "Số 130 Quốc lộ 1A, Thôn Bình Long, Xã Phan Rí Thành",
						"fax": "",
						"members": []
					}
				]
			},
			{
				"district": "Huyện Tánh Linh",
				"offices": [
					{
						"name": "Công Ty TNHH Dương Phát Thịnh",
						"latitude": "",
						"longtitude": "",
						"tel": [
							{
								"region": "",
								"number": "(062) 3 880 414",
								"type": ""
							}
						],
						"address": "Số 174 đường 25/12, khu phố Lạc Thuận",
						"fax": "(062) 3 880 616",
						"members": []
					}
				]
			},
			{
				"district": "Huyện Hàm Tân",
				"offices": [
					{
						"name": "Công ty TNHH Phú Hưng Thịnh-Chi nhánh Kim Cát",
						"latitude": "",
						"longtitude": "",
						"tel": [
							{
								"region": "",
								"number": "(062) 3878757",
								"type": ""
							}
						],
						"address": "Số 11 Hồ Xuân Hương, Thị trấn Tân Minh",
						"fax": "(062) 3878758",
						"members": []
					}
				]
			}
		]
	},
	{
		"province": "Cà Mau",
		"districts": [
			{
				"district": "Thành phố Cà Mau",
				"offices": [
					{
						"name": "Công Ty TNHH Một Thành Viên Phú Thành Tài",
						"latitude": "",
						"longtitude": "",
						"tel": [
							{
								"region": "",
								"number": "(0780) 3 552 929",
								"type": ""
							},
							{
								"region": "",
								"number": "(0780) 3 562 626",
								"type": ""
							}
						],
						"address": "135 Trần Hưng Đạo, P. 5",
						"fax": "(0780) 3 552 126",
						"members": []
					}
				]
			},
			{
				"district": "Thị trấn Cái Nước",
				"offices": [
					{
						"name": "Chi nhánh công ty TNHH Một thành viên Phú Thành Tài",
						"latitude": "",
						"longtitude": "",
						"tel": [
							{
								"region": "",
								"number": "(0780) 3 882 268",
								"type": ""
							}
						],
						"address": "Quốc lộ 1A, khóm 3",
						"fax": "(0780) 3 882 278",
						"members": []
					}
				]
			}
		]
	},
	{
		"province": "Cần Thơ",
		"districts": [
			{
				"district": "Quận Ninh Kiều",
				"offices": [
					{
						"name": "DNTN Đạt Thiện Nguyễn",
						"latitude": "",
						"longtitude": "",
						"tel": [
							{
								"region": "",
								"number": "(0710) 3 753 111",
								"type": ""
							}
						],
						"address": "35-37 đường Mậu Thân - Phường Xuân Khánh",
						"fax": "(0710) 3 753 222",
						"members": []
					},
					{
						"name": "Công Ty TNHH Đại Lý Bảo Hiểm Nhân Thọ Phúc An",
						"latitude": "",
						"longtitude": "",
						"tel": [
							{
								"region": "",
								"number": "(0710) 3 845 333",
								"type": ""
							}
						],
						"address": "Số 99 Hồ Tùng Mậu, P. Cái Khế",
						"fax": "(0710) 3 845 339",
						"members": []
					}
				]
			},
			{
				"district": "Quận Thốt Nốt",
				"offices": [
					{
						"name": "DNTN Đạt Thiện Nguyện",
						"latitude": "",
						"longtitude": "",
						"tel": [
							{
								"region": "",
								"number": "(0710) 3611 036",
								"type": ""
							}
						],
						"address": "1186B,quốc lộ 91,khu vực Thới Thạnh, Phường Thốt Nốt",
						"fax": "",
						"members": []
					}
				]
			}
		]
	},
	{
		"province": "Cao Bằng",
		"districts": [
			{
				"district": "Thành phố Cao Bằng",
				"offices": [
					{
						"name": "Công ty TNHH Phúc An Lộc Cao Bằng",
						"latitude": "",
						"longtitude": "",
						"tel": [
							{
								"region": "",
								"number": "(026) 3 955 955",
								"type": ""
							}
						],
						"address": "Số nhà 7, đường 03/10, tổ 14 đường Sông Bằng",
						"fax": "(026) 3 955 567",
						"members": []
					}
				]
			}
		]
	},
	{
		"province": "Đà Nẵng",
		"districts": [
			{
				"district": "Quận Hải Châu",
				"offices": [
					{
						"name": "Công Ty TNHH Một Thành Viên Long Bảo Phát",
						"latitude": "",
						"longtitude": "",
						"tel": [
							{
								"region": "",
								"number": "(051) 3 616 144",
								"type": ""
							}
						],
						"address": "Số 1N Núi Thành, P. Bình Thuận",
						"fax": "(051) 3 616 141",
						"members": []
					},
					{
						"name": "Công Ty TNHH Một Thành Viên An Minh Huy",
						"latitude": "",
						"longtitude": "",
						"tel": [
							{
								"region": "",
								"number": "(0511) 3 629 777",
								"type": ""
							}
						],
						"address": "168 Nguyễn Hữu Thọ, P. Hòa Thuận Tây",
						"fax": "(0511) 3 629 776",
						"members": []
					}
				]
			},
			{
				"district": "Quận Liên Chiểu",
				"offices": [
					{
						"name": "Công Ty TNHH Một Thành Viên Thiên Gia Huy",
						"latitude": "",
						"longtitude": "",
						"tel": [
							{
								"region": "",
								"number": "(0511) 3 740 303",
								"type": ""
							}
						],
						"address": "171E Nguyễn Lương Bằng,  Phường Hòa Khánh Bắc,",
						"fax": "(0511) 3 740 304",
						"members": []
					}
				]
			},
			{
				"district": "Quận Thanh Khê",
				"offices": [
					{
						"name": "Văn phòng giao dịch - Công Ty TNHH Một Thành Viên Thiên Gia Huy",
						"latitude": "",
						"longtitude": "",
						"tel": [
							{
								"region": "",
								"number": "(0511) 3 727 444",
								"type": ""
							},
							{
								"region": "",
								"number": "(0511) 3 727 446",
								"type": ""
							}
						],
						"address": "94 Hà Huy Tập, Phường Thanh Khê Đông",
						"fax": "(0511) 3 727 447",
						"members": []
					}
				]
			},
			{
				"district": "Quận Ngũ Hành Sơn",
				"offices": [
					{
						"name": "Công ty TNHH Đại lý bảo hiểm Trí Nguyên Tâm",
						"latitude": "",
						"longtitude": "",
						"tel": [
							{
								"region": "",
								"number": "(0511) 3943777",
								"type": ""
							}
						],
						"address": "Số 90 Ngũ Hành Sơn, P. Mỹ An",
						"fax": "(0511) 3943877",
						"members": []
					}
				]
			},
			{
				"district": "Quận Cẩm Lệ",
				"offices": [
					{
						"name": "Cty TNHH một thành viên Đầu Tư Phong Gia Việt",
						"latitude": "",
						"longtitude": "",
						"tel": [
							{
								"region": "",
								"number": "(0511) 3673999",
								"type": ""
							}
						],
						"address": "192 Cách Mạng Tháng 8, Phường Khuê Trung",
						"fax": "",
						"members": []
					}
				]
			},
			{
				"district": "Huyện Hòa Vang",
				"offices": [
					{
						"name": "Công Ty TNHH Một Thành Viên An Minh Huy-CN Hòa Vang",
						"latitude": "",
						"longtitude": "",
						"tel": [
							{
								"region": "",
								"number": "(0511) 362 9168",
								"type": ""
							}
						],
						"address": "Quốc lộ 14G, Hòa Phú 2, Xã Hòa Nhơn",
						"fax": "(0511) 362 9165",
						"members": []
					}
				]
			}
		]
	},
	{
		"province": "Đăk Lăk",
		"districts": [
			{
				"district": "Huyện EA Kar",
				"offices": [
					{
						"name": "Công Ty TNHH Một Thành Viên Phú - An Gia",
						"latitude": "",
						"longtitude": "",
						"tel": [
							{
								"region": "",
								"number": "(0500) 3 627 599",
								"type": ""
							}
						],
						"address": "Số 21 đường Quang Trung, Thị trấn Ea Kar",
						"fax": "(0500) 3 627 499",
						"members": []
					}
				]
			},
			{
				"district": "Huyện Cư Kuin",
				"offices": [
					{
						"name": "Công Ty TNHH Một Thành Viên Cư Kuin",
						"latitude": "",
						"longtitude": "",
						"tel": [
							{
								"region": "",
								"number": "(0500) 3 639 010",
								"type": ""
							}
						],
						"address": "16, Quốc lộ 27, Xã Đray Bhăng",
						"fax": "(0500) 3 639 030",
						"members": []
					}
				]
			},
			{
				"district": "Huyện Ea H’Leo",
				"offices": [
					{
						"name": "Công Ty TNHH Một Thành Viên Phú - An Gia - CN Tại Ea H'Leo",
						"latitude": "",
						"longtitude": "",
						"tel": [
							{
								"region": "",
								"number": "(0500) 3 776 559",
								"type": ""
							}
						],
						"address": "Số 303, đường Giải Phóng, Thị trấn Ea Đrăng",
						"fax": "(0500) 3 778 863",
						"members": []
					}
				]
			},
			{
				"district": "Huyện Krông Năng",
				"offices": [
					{
						"name": "Công ty TNHH Một Thành Viên Phú-An Gia-Chi nhánh tại Krông Năng",
						"latitude": "",
						"longtitude": "",
						"tel": [
							{
								"region": "",
								"number": "(0500) 36742234",
								"type": ""
							}
						],
						"address": "Số 186 Nguyễn Tất Thành, Tổ dân phố 1, thị trấn Krông Năng",
						"fax": "",
						"members": []
					}
				]
			},
			{
				"district": "Huyện Krông Bông",
				"offices": [
					{
						"name": "Chi nhánh Krông Bông - Công ty TNHH Một Thành viên Cư Kuin",
						"latitude": "",
						"longtitude": "",
						"tel": [
							{
								"region": "",
								"number": "(0500) 3733234",
								"type": ""
							}
						],
						"address": "Số nhà 23 Nguyễn Huệ, Tổ dân phố 6, Thị trấn Krông Kmar",
						"fax": "",
						"members": []
					}
				]
			},
			{
				"district": "Huyện Cư M’gar",
				"offices": [
					{
						"name": "Công ty TNHH An Hưng Thịnh Đắk Lắk",
						"latitude": "",
						"longtitude": "",
						"tel": [
							{
								"region": "",
								"number": "(0500) 389 8686",
								"type": ""
							},
							{
								"region": "",
								"number": "(0500) 394 5678",
								"type": ""
							}
						],
						"address": "Số 54 Hùng Vương, thị trấn Quảng Phú",
						"fax": "(0500) 353 9797",
						"members": []
					}
				]
			},
			{
				"district": "Thành phố Buôn Ma Thuột",
				"offices": [
					{
						"name": "Công Ty TNHH Tâm Long Thắng",
						"latitude": "",
						"longtitude": "",
						"tel": [
							{
								"region": "",
								"number": "(0500) 3 970 379",
								"type": ""
							}
						],
						"address": "Số 3 đường Tú Xương, P. Tân Lợi",
						"fax": "(0500) 3 970 279",
						"members": []
					}
				]
			}
		]
	},
	{
		"province": "Đắk Nông",
		"districts": [
			{
				"district": "Thị xã Gia Nghĩa",
				"offices": [
					{
						"name": "Công ty TNHH Một Thành Viên Gia An Phúc",
						"latitude": "",
						"longtitude": "",
						"tel": [
							{
								"region": "",
								"number": "(0501) 3 544 212",
								"type": ""
							}
						],
						"address": "Số nhà 14, đường 233, P. Nghĩa Tân",
						"fax": "(0501) 3 544 112",
						"members": []
					}
				]
			},
			{
				"district": "Huyện Cư Jut",
				"offices": [
					{
						"name": "Công Ty TNHH Tâm Long Thắng-Chi nhánh Cư Jút",
						"latitude": "",
						"longtitude": "",
						"tel": [
							{
								"region": "",
								"number": "(0501) 369 2428",
								"type": ""
							}
						],
						"address": "Số 171A, đường Nguyễn Tất Thành, thị trấn Ea T-ling",
						"fax": "",
						"members": []
					}
				]
			},
			{
				"district": "Huyện Đắk R'lấp",
				"offices": [
					{
						"name": "Chi nhánh công ty TNHH Một Thành viên Hưng Phúc Vinh",
						"latitude": "",
						"longtitude": "",
						"tel": [
							{
								"region": "",
								"number": "(0501) 364 7676",
								"type": ""
							}
						],
						"address": "Số 130 Nguyễn Tất Thành, thị trấn Kiến Đức",
						"fax": "",
						"members": []
					}
				]
			}
		]
	},
	{
		"province": "Điện Biên",
		"districts": [
			{
				"district": "Thành phố Điện Biên Phủ",
				"offices": [
					{
						"name": "Công Ty TNHH Phú Bình",
						"latitude": "",
						"longtitude": "",
						"tel": [
							{
								"region": "",
								"number": "(0230) 3 835 246",
								"type": ""
							}
						],
						"address": "Số nhà 706, Tổ dân phố 2, P. Tân Thanh",
						"fax": "(0230) 3 835 247",
						"members": []
					}
				]
			}
		]
	},
	{
		"province": "Đồng Nai",
		"districts": [
			{
				"district": "Thị xã Long Khánh",
				"offices": [
					{
						"name": "Công Ty TNHH Một Thành Viên Thiên Ân Phú Lộc",
						"latitude": "",
						"longtitude": "",
						"tel": [
							{
								"region": "",
								"number": "(061) 3 784 772",
								"type": ""
							}
						],
						"address": "Số 127 Nguyễn Văn Cừ, Khu phố 2, P. Xuân An",
						"fax": "(061) 3 784 773",
						"members": []
					}
				]
			},
			{
				"district": "Thành phố Biên Hoà",
				"offices": [
					{
						"name": "Công Ty TNHH Một Thành Viên Lộc Phát Thành Hai",
						"latitude": "",
						"longtitude": "",
						"tel": [
							{
								"region": "",
								"number": "(061) 3 947 898",
								"type": ""
							}
						],
						"address": "1467 Nguyễn Ái Quốc, KP.5, P. Tân Tiến",
						"fax": "(061) 3 947 899",
						"members": []
					}
				]
			},
			{
				"district": "Thị Trấn Long Thành",
				"offices": [
					{
						"name": "Chi nhánh Công Ty TNHH Một thành viên Lộc Phát Thành Hai",
						"latitude": "",
						"longtitude": "",
						"tel": [
							{
								"region": "",
								"number": "(061) 2814668",
								"type": ""
							}
						],
						"address": "A2-7 Chợ Long Thành, Khu Cầu Xẻo",
						"fax": "(061) 2814667",
						"members": []
					}
				]
			},
			{
				"district": "Huyện Định Quán",
				"offices": [
					{
						"name": "Công ty TNHH Liên Minh Đông Nam",
						"latitude": "",
						"longtitude": "",
						"tel": [
							{
								"region": "",
								"number": "(061) 3 851 799",
								"type": ""
							}
						],
						"address": "Lầu 1, Số 43, Phố 1, Ấp 2, Xã Phú Lợi",
						"fax": "(061) 3 851 788",
						"members": []
					}
				]
			},
			{
				"district": " Huyện Xuân Lộc",
				"offices": [
					{
						"name": "Công ty TNHH Một Thành Viên Thiên Ân Phú Lộc-Chi nhánh Xuân Lộc",
						"latitude": "",
						"longtitude": "",
						"tel": [
							{
								"region": "",
								"number": "(061) 387 1099",
								"type": ""
							}
						],
						"address": "Tổ 4, KP. 6, thị trấn Gia Ray",
						"fax": "",
						"members": []
					}
				]
			},
			{
				"district": "Huyện Tân Phú",
				"offices": [
					{
						"name": "Công ty TNHH Một thành viên Vương Quốc Phát Lộc",
						"latitude": "",
						"longtitude": "",
						"tel": [
							{
								"region": "",
								"number": "(061) 3856 889",
								"type": ""
							}
						],
						"address": "Số 429, tổ 1, Khu 3, Thị trấn Tân Phú",
						"fax": "",
						"members": []
					}
				]
			}
		]
	},
	{
		"province": "Đồng Tháp",
		"districts": [
			{
				"district": "Thành phố Cao Lãnh",
				"offices": [
					{
						"name": "Công Ty TNHH Bảo Hiểm Nhân Thọ An Khang",
						"latitude": "",
						"longtitude": "",
						"tel": [
							{
								"region": "",
								"number": "(067) 3 877 661",
								"type": ""
							}
						],
						"address": "Số 49 Lê Anh Xuân, P. 2",
						"fax": "(067) 3 877 662",
						"members": []
					}
				]
			},
			{
				"district": "Thị xã Sa Đéc",
				"offices": [
					{
						"name": "Công Ty TNHH BHNT An Phúc",
						"latitude": "",
						"longtitude": "",
						"tel": [
							{
								"region": "",
								"number": "(067) 3 867 177",
								"type": ""
							}
						],
						"address": "Số 170A, Trần Hưng Đạo, khóm 1, P. 1",
						"fax": "(067) 3 867 577",
						"members": []
					}
				]
			},
			{
				"district": "Thị xã Hồng Ngự",
				"offices": [
					{
						"name": "Công Ty TNHH BHNT An Phước",
						"latitude": "",
						"longtitude": "",
						"tel": [
							{
								"region": "",
								"number": "(067) 3 584 111",
								"type": ""
							}
						],
						"address": "Tổ 7, khóm Sở Thượng, P. An Lạc",
						"fax": "(067) 3 585 234",
						"members": []
					}
				]
			}
		]
	},
	{
		"province": "Gia Lai",
		"districts": [
			{
				"district": "Thành phố Pleiku",
				"offices": [
					{
						"name": "Công Ty TNHH Đại Lý Bảo Hiểm GL",
						"latitude": "",
						"longtitude": "",
						"tel": [
							{
								"region": "",
								"number": "(059) 3 715 165",
								"type": ""
							}
						],
						"address": "Số 153, đường CMT8, P. Hoa Lư",
						"fax": "(059) 3 826 372",
						"members": []
					}
				]
			},
			{
				"district": "Thị xã Ayun Pa",
				"offices": [
					{
						"name": "Công Ty TNHH ĐL Bảo Hiểm Đức Gia Thịnh",
						"latitude": "",
						"longtitude": "",
						"tel": [
							{
								"region": "",
								"number": "(059) 3 852 679",
								"type": ""
							}
						],
						"address": "Số 54 Lê Hồng Phong, P. Đoàn Kết",
						"fax": "(059) 3 852 348",
						"members": []
					}
				]
			},
			{
				"district": "Thị xã An Khê",
				"offices": [
					{
						"name": "Công Ty TNHH Một Thành Viên Đại lý Bảo Hiểm An Khê",
						"latitude": "",
						"longtitude": "",
						"tel": [
							{
								"region": "",
								"number": "(059) 3 533 705",
								"type": ""
							}
						],
						"address": "173 Đỗ Trạc, tổ 4, P. Tây Sơn",
						"fax": "(059) 6 250 229",
						"members": []
					}
				]
			},
			{
				"district": "Kbang",
				"offices": [
					{
						"name": "VPĐD Công ty TNHH MTV Đại Lý Bảo Hiểm GL",
						"latitude": "",
						"longtitude": "",
						"tel": [
							{
								"region": "",
								"number": "(059) 3880880",
								"type": ""
							}
						],
						"address": "155 Lê Văn Tám, TT Kbang",
						"fax": "",
						"members": []
					}
				]
			}
		]
	},
	{
		"province": "Hà Giang",
		"districts": [
			{
				"district": "Thành phố Hà Giang",
				"offices": [
					{
						"name": "Công Ty TNHH Phú Toàn Gia An Phúc",
						"latitude": "",
						"longtitude": "",
						"tel": [
							{
								"region": "",
								"number": "(0219) 3 868 466",
								"type": ""
							}
						],
						"address": "Số 289, Tổ 12, P.Nguyễn Trãi",
						"fax": "(0219) 3 875 444",
						"members": []
					}
				]
			},
			{
				"district": "Huyện Bắc Quang",
				"offices": [
					{
						"name": "Công ty TNHH Một Thành viên Phú Hưng Thịnh Hà Giang",
						"latitude": "",
						"longtitude": "",
						"tel": [
							{
								"region": "",
								"number": "(0219) 3 821 818",
								"type": ""
							}
						],
						"address": "Số 130, Tổ 4, TT. Việt Quang",
						"fax": "(0219) 3 822 685",
						"members": []
					}
				]
			},
			{
				"district": "Huyện Yên Minh",
				"offices": [
					{
						"name": "Công Ty TNHH Phú Toàn Gia An Phúc - Chi nhánh tại Minh Yên",
						"latitude": "",
						"longtitude": "",
						"tel": [
							{
								"region": "",
								"number": "(0219) 3850 889",
								"type": ""
							}
						],
						"address": "Số nhà 70, Tổ 2, Thị trấn Yên Minh",
						"fax": "(0219) 3850 889",
						"members": []
					}
				]
			}
		]
	},
	{
		"province": "Hà Nam",
		"districts": [
			{
				"district": "Thành phố Phủ Lý",
				"offices": [
					{
						"name": "Công Ty TNHH Hoàn Mỹ",
						"latitude": "",
						"longtitude": "",
						"tel": [
							{
								"region": "",
								"number": "(0351) 3 855 073",
								"type": ""
							}
						],
						"address": "Tầng 4, Số 114, Đường Trần Phú, Phường Quang Trung",
						"fax": "(0351) 3 849 727",
						"members": []
					}
				]
			},
			{
				"district": "Huyện Thanh Liêm",
				"offices": [
					{
						"name": "Công ty TNHH Hưng Thịnh Thanh Liêm",
						"latitude": "",
						"longtitude": "",
						"tel": [
							{
								"region": "",
								"number": "(0351) – 388 7171",
								"type": ""
							}
						],
						"address": "Xóm Tô Vũ, xã Thanh Lưu",
						"fax": "(0351) – 388 7171",
						"members": []
					}
				]
			}
		]
	},
	{
		"province": "Hà Tĩnh",
		"districts": [
			{
				"district": "Thành phố Hà Tĩnh",
				"offices": [
					{
						"name": "Công Ty TNHH Việt - Anh",
						"latitude": "",
						"longtitude": "",
						"tel": [
							{
								"region": "",
								"number": "(039) 3 852 717",
								"type": ""
							}
						],
						"address": "Số 77 đường Hà Huy Tập, P. Nam Hà",
						"fax": "(039) 3 852 715",
						"members": []
					}
				]
			},
			{
				"district": "Thị xã Hồng Lĩnh",
				"offices": [
					{
						"name": "Công Ty TNHH Phú Hoàn Mỹ",
						"latitude": "",
						"longtitude": "",
						"tel": [
							{
								"region": "",
								"number": "(039) 3 787 555",
								"type": ""
							}
						],
						"address": "21 Quang Trung, P. Nam Hồng",
						"fax": "(039) 3 787 444",
						"members": []
					}
				]
			},
			{
				"district": "Huyện Kỳ Anh",
				"offices": [
					{
						"name": "Công Ty TNHH Việt - Anh - CN tại Kỳ Anh",
						"latitude": "",
						"longtitude": "",
						"tel": [
							{
								"region": "",
								"number": "(039) 3 721 949",
								"type": ""
							}
						],
						"address": "Tiểu khu 6, khối phố Hưng Thịnh, Thị trấn Kỳ Anh",
						"fax": "(039) 3 721 948",
						"members": []
					}
				]
			},
			{
				"district": "Huyện Hương Sơn",
				"offices": [
					{
						"name": "Công ty TNHH Việt - Anh- Chi nhánh tại Hương Sơn",
						"latitude": "",
						"longtitude": "",
						"tel": [
							{
								"region": "",
								"number": "(039) 3516 456",
								"type": ""
							}
						],
						"address": "Nhà bà Ngô Thị Lợi, Khối 4, Thị trấn Phố Châu",
						"fax": "(039) 3516 345",
						"members": []
					}
				]
			},
			{
				"district": "Huyện Hương Khê",
				"offices": [
					{
						"name": "Công Ty TNHH Phú Hoàn Mỹ - Chi nhánh tại Hương Khê",
						"latitude": "",
						"longtitude": "",
						"tel": [
							{
								"region": "",
								"number": "(039) 3872 555",
								"type": ""
							}
						],
						"address": "Số 238 Trần Phú, Thị trấn Hương Khê",
						"fax": "",
						"members": []
					}
				]
			}
		]
	},
	{
		"province": "Hải Dương",
		"districts": [
			{
				"district": "Huyện Gia Lộc",
				"offices": [
					{
						"name": "Công Ty TNHH Một Thành Viên Phú Bình",
						"latitude": "",
						"longtitude": "",
						"tel": [
							{
								"region": "",
								"number": "(0320) 3 514 807",
								"type": ""
							}
						],
						"address": "Khu Đô thị phía Bắc - TT Gia Lộc",
						"fax": "(0320) 3 514 808",
						"members": []
					}
				]
			},
			{
				"district": "Huyện Chí Linh",
				"offices": [
					{
						"name": "Công Ty TNHH Một Thành Viên Bảo Hiểm Long Thủy",
						"latitude": "",
						"longtitude": "",
						"tel": [
							{
								"region": "",
								"number": "(0320) 3 884 323",
								"type": ""
							}
						],
						"address": "Số 161, Phố Hùng Vương, TT Sao Đỏ",
						"fax": "(0320) 3 594 495",
						"members": []
					}
				]
			},
			{
				"district": "Huyện Nam Sách",
				"offices": [
					{
						"name": "Chi nhánh Công ty TNHH Một Thành Viên Phú Bình",
						"latitude": "",
						"longtitude": "",
						"tel": [
							{
								"region": "",
								"number": "(0320) 3 754 499",
								"type": ""
							}
						],
						"address": "Số 405, đường Trần Phú, Thị trấn Nam Sách",
						"fax": "(0320) 3 756 222",
						"members": []
					}
				]
			},
			{
				"district": "Huyện Kinh Môn",
				"offices": [
					{
						"name": "Công Ty TNHH Phúc Hưng Thịnh HD",
						"latitude": "",
						"longtitude": "",
						"tel": [
							{
								"region": "",
								"number": "(0320) 3 826 788",
								"type": ""
							}
						],
						"address": "Ngã 4 Phụ Sơn, TT Kinh Môn",
						"fax": "(0320) 3 826 786",
						"members": []
					}
				]
			},
			{
				"district": "Huyện Bình Giang",
				"offices": [
					{
						"name": "Công ty TNHH Một Thành Viên Phú Bình- Chi nhánh tại Bìng Giang",
						"latitude": "",
						"longtitude": "",
						"tel": [
							{
								"region": "",
								"number": "(0320) 3772266",
								"type": ""
							}
						],
						"address": "Số 88 Đường 20, Xã Tráng Liệt",
						"fax": "",
						"members": []
					}
				]
			},
			{
				"district": "Huyện Thanh Miện",
				"offices": [
					{
						"name": "Công Ty TNHH Một Thành Viên Bảo Hiểm Long Thủy",
						"latitude": "",
						"longtitude": "",
						"tel": [
							{
								"region": "",
								"number": "(0320) 6263019",
								"type": ""
							}
						],
						"address": "Số 179 phố Nguyễn Lương Bằng, Thị trấn Thanh Miện",
						"fax": "(0320) 6263019",
						"members": []
					}
				]
			},
			{
				"district": "Huyện Thanh Hà",
				"offices": [
					{
						"name": "Công ty TNHH Một thành viên An Bình Hải Dương-CN Thanh Hà",
						"latitude": "",
						"longtitude": "",
						"tel": [
							{
								"region": "",
								"number": "(0320) 3815528",
								"type": ""
							}
						],
						"address": "Thôn An Liệt, Xã Thanh Hải",
						"fax": "(0320) 3815528",
						"members": []
					}
				]
			},
			{
				"district": "Huyện Kinh Môn",
				"offices": [
					{
						"name": "Cty TNHH Phú Bảo Toàn",
						"latitude": "",
						"longtitude": "",
						"tel": [
							{
								"region": "",
								"number": "(0320) 3826288",
								"type": ""
							}
						],
						"address": "Thôn Hiệp Thạch, X. Hiệp Sơn",
						"fax": "(0320) 3826288",
						"members": []
					}
				]
			},
			{
				"district": "Huyện Kim Thành",
				"offices": [
					{
						"name": "Cty TNHH Bảo Hiểm Đại Long",
						"latitude": "",
						"longtitude": "",
						"tel": [
							{
								"region": "",
								"number": "(0320) 3726888",
								"type": ""
							}
						],
						"address": "Số 66 quốc lộ 5, thị trấn Phú Thái",
						"fax": "",
						"members": []
					}
				]
			},
			{
				"district": "Thành phố Hải Dương",
				"offices": [
					{
						"name": "Công ty TNHH Một thành viên An Bình Hải Dương",
						"latitude": "",
						"longtitude": "",
						"tel": [
							{
								"region": "",
								"number": "(0320) 3 848 767",
								"type": ""
							},
							{
								"region": "",
								"number": "(0320) 3 846 226",
								"type": ""
							}
						],
						"address": "Số 215 Nguyễn Bỉnh Khiêm, phường Hải Tân",
						"fax": "(0320) 3 848 764",
						"members": []
					},
					{
						"name": "Công ty TNHH Bảo hiểm nhân thọ Bảo Kim Ngân",
						"latitude": "",
						"longtitude": "",
						"tel": [
							{
								"region": "",
								"number": "(0320) 3892228",
								"type": ""
							}
						],
						"address": "Lô 120.134 khu biệt thự Đỉnh Long, P. Tân Bình",
						"fax": "",
						"members": []
					},
					{
						"name": "Cty TNHH MTV Kinh doanh Thương Mại Kim Thắng",
						"latitude": "",
						"longtitude": "",
						"tel": [
							{
								"region": "",
								"number": "(0320) 856566",
								"type": ""
							}
						],
						"address": "Sô 142C Quang Trung, P. Quang Trung",
						"fax": "",
						"members": []
					}
				]
			}
		]
	},
	{
		"province": "Hải Phòng",
		"districts": [
			{
				"district": "Quận Ngô Quyền",
				"offices": [
					{
						"name": "Công Ty TNHH Hồng Bàng",
						"latitude": "",
						"longtitude": "",
						"tel": [
							{
								"region": "",
								"number": "(031) 3 757 398",
								"type": ""
							}
						],
						"address": "Số 5 Võ Thị Sáu, P. Máy Tơ",
						"fax": "(031) 3 757 397",
						"members": []
					},
					{
						"name": "Công ty TNHH Phúc An Lộc",
						"latitude": "",
						"longtitude": "",
						"tel": [
							{
								"region": "",
								"number": "(031) 3 552 898",
								"type": ""
							}
						],
						"address": "Số 88 Lương Khánh Thiện, P. Lương Khánh Thiện",
						"fax": "(031) 3 552 998",
						"members": []
					}
				]
			},
			{
				"district": "Quận Đồ Sơn",
				"offices": [
					{
						"name": "VPĐD Công ty TNHH Hồng Bàng",
						"latitude": "",
						"longtitude": "",
						"tel": [
							{
								"region": "",
								"number": "(031) 3 633 386",
								"type": ""
							}
						],
						"address": "Số 89 Lý Thánh Tông, P. Vạn Sơn",
						"fax": "(031) 3 633 385",
						"members": []
					}
				]
			},
			{
				"district": "Huyện Tiên Lãng",
				"offices": [
					{
						"name": "Công Ty TNHH Hồng Bàng - CN tại Vĩnh Bảo",
						"latitude": "",
						"longtitude": "",
						"tel": [
							{
								"region": "",
								"number": "(031) 3 899 666",
								"type": ""
							}
						],
						"address": "Số 68, khu 8, thị trấn Tiên Lãng",
						"fax": "(031) 3 899 699",
						"members": []
					}
				]
			},
			{
				"district": "Huyện Thuỷ Nguyên",
				"offices": [
					{
						"name": "Công ty TNHH Phúc An Lộc",
						"latitude": "",
						"longtitude": "",
						"tel": [
							{
								"region": "",
								"number": "(031) 3 916 599",
								"type": ""
							}
						],
						"address": "Số 21 đường Đà Nẵng, Thị trấn Núi Đèo",
						"fax": "(031) 3 916 586",
						"members": []
					}
				]
			},
			{
				"district": "Quận Ngô Quyền",
				"offices": [
					{
						"name": "Công ty TNHH Phúc An Lộc",
						"latitude": "",
						"longtitude": "",
						"tel": [
							{
								"region": "",
								"number": "(031) 3 552 898",
								"type": ""
							}
						],
						"address": "Số 88 Lương Khánh Thiện, Phường Lương Khánh Thiện",
						"fax": "(031) 3 552 998",
						"members": []
					}
				]
			},
			{
				"district": "Quận Hồng Bàng",
				"offices": [
					{
						"name": "Công ty TNHH Phú Hưng Đạt Lợi",
						"latitude": "",
						"longtitude": "",
						"tel": [
							{
								"region": "",
								"number": "(031) 355 3980",
								"type": ""
							}
						],
						"address": "Số 4B Bạch Đằng, phường Hạ Lý",
						"fax": "",
						"members": []
					}
				]
			},
			{
				"district": "Huyện Tiên Lãng",
				"offices": [
					{
						"name": "Công ty TNHH Phú Gia Bảo Hưng ",
						"latitude": "",
						"longtitude": "",
						"tel": [
							{
								"region": "",
								"number": "(031) 3683683",
								"type": ""
							}
						],
						"address": "Xóm 10 chợ Đông Quy, xã Toàn Thắng",
						"fax": "(031) 3683683",
						"members": []
					}
				]
			},
			{
				"district": "Quận Lê Chân",
				"offices": [
					{
						"name": "Công ty TNHH Bảo Phúc Hưng Thịnh",
						"latitude": "",
						"longtitude": "",
						"tel": [
							{
								"region": "",
								"number": "(031) 3770839",
								"type": ""
							}
						],
						"address": "Số 121 Lán Bè, P. Lam Sơn",
						"fax": "(031) 3770838",
						"members": []
					}
				]
			}
		]
	},
	{
		"province": "Hậu Giang",
		"districts": [
			{
				"district": "Thành phố Vị Thanh",
				"offices": [
					{
						"name": "Công Ty TNHH Đại Lý Bảo Hiểm Nhân Thọ Phúc An",
						"latitude": "",
						"longtitude": "",
						"tel": [
							{
								"region": "",
								"number": "(0711) 3 582 431",
								"type": ""
							}
						],
						"address": "Số 69 Hải Thượng Lãn Ông, P. 1",
						"fax": "(0711) 3 582 433",
						"members": []
					}
				]
			}
		]
	},
	{
		"province": "Hòa Bình",
		"districts": [
			{
				"district": "Huyện Lương Sơn",
				"offices": [
					{
						"name": "Công Ty TNHH Lê Bình",
						"latitude": "",
						"longtitude": "",
						"tel": [
							{
								"region": "",
								"number": "(0218) 3 826 956",
								"type": ""
							}
						],
						"address": "Tầng 2+3, nhà hàng Cửu Long, tiểu khu 7, Thị trấn Lương Sơn",
						"fax": "(0218) 3 826 958",
						"members": []
					}
				]
			},
			{
				"district": "Thành phố Hòa Bình",
				"offices": [
					{
						"name": "Công ty TNHH Một Thành viên Phạm Lan HB",
						"latitude": "",
						"longtitude": "",
						"tel": [
							{
								"region": "",
								"number": "(0218) 6 288 098",
								"type": ""
							}
						],
						"address": "Số nhà 29, tổ 1A, P. Tân Thịnh,",
						"fax": "(0218) 6 288 095",
						"members": []
					}
				]
			},
			{
				"district": "Huyện Tân Lạc",
				"offices": [
					{
						"name": "Chi nhánh Công ty TNHH Một Thành viên Phạm Lan HB",
						"latitude": "",
						"longtitude": "",
						"tel": [
							{
								"region": "",
								"number": "(0218) 3 832 581",
								"type": ""
							}
						],
						"address": "Số nhà 33, khu 2, Thị trấn Mường Khến",
						"fax": "",
						"members": []
					}
				]
			}
		]
	},
	{
		"province": "Hưng Yên",
		"districts": [
			{
				"district": "Huyện Mỹ Hào",
				"offices": [
					{
						"name": "Công Ty TNHH Vương Quốc Anh - CN tại Hưng Yên",
						"latitude": "",
						"longtitude": "",
						"tel": [
							{
								"region": "",
								"number": "(0321) 3 942 946",
								"type": ""
							}
						],
						"address": "Số 83 Phố Nối, Thị trấn Bần Yên Nhân",
						"fax": "(0321) 3 942 945",
						"members": []
					}
				]
			},
			{
				"district": "Thành phố Hưng Yên",
				"offices": [
					{
						"name": "Chi nhánh Công Ty TNHH Một Thành Viên Bảo Hiểm Long Thủy",
						"latitude": "",
						"longtitude": "",
						"tel": [
							{
								"region": "",
								"number": "(0321) 3 559 198",
								"type": ""
							}
						],
						"address": "Số 330 Lô 42, Phố Nguyễn Văn Linh, P. An Tảo",
						"fax": "(0321) 3 559 197",
						"members": []
					}
				]
			},
			{
				"district": "Huyện Văn Giang",
				"offices": [
					{
						"name": "Công ty TNHH Vương Quốc Anh-CN Văn Giang",
						"latitude": "",
						"longtitude": "",
						"tel": [
							{
								"region": "",
								"number": "(0321) 393 3636",
								"type": ""
							}
						],
						"address": "Số 338, Thị trấn Văn Giang",
						"fax": "(0321) 393 3616",
						"members": []
					}
				]
			},
			{
				"district": "Huyện Khoái Châu",
				"offices": [
					{
						"name": "Công Ty TNHH Một Thành Viên Bảo Hiểm Long Thủy",
						"latitude": "",
						"longtitude": "",
						"tel": [
							{
								"region": "",
								"number": "(0321) 371 4696",
								"type": ""
							}
						],
						"address": "Đường 39A, thôn Yên Lịch, xã Dân Tiến",
						"fax": "(0321) 371 4696",
						"members": []
					}
				]
			},
			{
				"district": "Huyện Văn Lâm",
				"offices": [
					{
						"name": "Chi nhánh Công ty TNHH Hùng Anh Hưng Yên",
						"latitude": "",
						"longtitude": "",
						"tel": [
							{
								"region": "",
								"number": "(0321) 6539976",
								"type": ""
							}
						],
						"address": "Cụm dân cư số 3, thị trấn Như Quỳnh",
						"fax": "",
						"members": []
					}
				]
			}
		]
	},
	{
		"province": "Khánh Hòa",
		"districts": [
			{
				"district": "Thị trấn Ninh Hòa",
				"offices": [
					{
						"name": "Công Ty TNHH Nhân Vy PT - Chi nhánh Ninh Hòa",
						"latitude": "",
						"longtitude": "",
						"tel": [
							{
								"region": "",
								"number": "(058) 3 632 255",
								"type": ""
							}
						],
						"address": "Lô 15, Khu quy hoạch dân cư, đường Trần Quý Cáp, thôn 1",
						"fax": "(058) 3 632 266",
						"members": []
					}
				]
			},
			{
				"district": "Thị xã Cam Ranh",
				"offices": [
					{
						"name": "Công Ty TNHH Minh Tân",
						"latitude": "",
						"longtitude": "",
						"tel": [
							{
								"region": "",
								"number": "(058) 3 956 889",
								"type": ""
							}
						],
						"address": "Số nhà A 4, Chung cư Lạc Hòa,P. Cam Lộc",
						"fax": "(058) 3 956 898",
						"members": []
					}
				]
			},
			{
				"district": "Thành phố Nha Trang",
				"offices": [
					{
						"name": "Công Ty TNHH Vy Nhân PT",
						"latitude": "",
						"longtitude": "",
						"tel": [
							{
								"region": "",
								"number": "(058) 351 3338",
								"type": ""
							},
							{
								"region": "",
								"number": "(058) 351 5788",
								"type": ""
							}
						],
						"address": "15 Ngô Đức Kế, P. Tân Lập",
						"fax": "(058) 351 0577",
						"members": []
					}
				]
			},
			{
				"district": "Huyện Khánh Vĩnh",
				"offices": [
					{
						"name": "Công Ty TNHH Minh Tân-Chi nhánh Khánh Vĩnh",
						"latitude": "",
						"longtitude": "",
						"tel": [
							{
								"region": "",
								"number": "(058) 3956 889",
								"type": ""
							}
						],
						"address": "Số 147 Trần Phú, Thị trấn Khánh Vĩnh",
						"fax": "",
						"members": []
					}
				]
			},
			{
				"district": "Huyện Diên Khánh",
				"offices": [
					{
						"name": "Công ty TNHH Bảo Hiểm Tâm Như Ngọc",
						"latitude": "",
						"longtitude": "",
						"tel": [
							{
								"region": "",
								"number": "(058) 3761139",
								"type": ""
							}
						],
						"address": "Phú Ân Nam, Xã Diên An",
						"fax": "",
						"members": []
					}
				]
			},
			{
				"district": "Huyện Vạn Ninh",
				"offices": [
					{
						"name": "Công ty TNHH BHNT Hoàng Hà Phát",
						"latitude": "",
						"longtitude": "",
						"tel": [
							{
								"region": "",
								"number": "(058) 3912579",
								"type": ""
							}
						],
						"address": "Tổ dân phố 8, TT. Vạn Giã",
						"fax": "",
						"members": []
					}
				]
			}
		]
	},
	{
		"province": "Kiên Giang",
		"districts": [
			{
				"district": "Huyện Phú Quốc",
				"offices": [
					{
						"name": "Công Ty TNHH Một Thành Viên Phú An Sinh",
						"latitude": "",
						"longtitude": "",
						"tel": [
							{
								"region": "",
								"number": "(077) 3 994 843",
								"type": ""
							}
						],
						"address": "87, đường Nguyễn Trung Trực, Khu phố 4",
						"fax": "(0773) 994 842",
						"members": []
					}
				]
			},
			{
				"district": "Huyện Kiên Lương",
				"offices": [
					{
						"name": "Công Ty TNHH Một Thành Viên Đắc Nhân Trí",
						"latitude": "",
						"longtitude": "",
						"tel": [
							{
								"region": "",
								"number": "(077) 3 751 018",
								"type": ""
							}
						],
						"address": "Số 15, 16 Đường Trần Hưng Đạo, TTTM 3, Khu phố Ba Hòn, Thị trấn Kiên Lương",
						"fax": "(077) 3 751 019",
						"members": []
					}
				]
			},
			{
				"district": "Thành phố Rạch Giá",
				"offices": [
					{
						"name": "Công Ty TNHH Một Thành Viên Phú Nhất Tâm",
						"latitude": "",
						"longtitude": "",
						"tel": [
							{
								"region": "",
								"number": "(077) 3 944 498",
								"type": ""
							},
							{
								"region": "",
								"number": "(077) 3 944 499",
								"type": ""
							}
						],
						"address": "Số 61 đường Đống Đa, phường Vĩnh Lạc",
						"fax": "(077) 3 944 497",
						"members": []
					}
				]
			},
			{
				"district": "Huyện Tân Hiệp",
				"offices": [
					{
						"name": "Chi nhánh Tân Hiệp - Công Ty TNHH Một Thành Viên Phú Nhất Tâm",
						"latitude": "",
						"longtitude": "",
						"tel": [
							{
								"region": "",
								"number": "(077) 3 739 739",
								"type": ""
							}
						],
						"address": "Tổ 3, Ấp Đông Thành, Xã Thạnh Đông A",
						"fax": "(077) 3 739 839",
						"members": []
					}
				]
			}
		]
	},
	{
		"province": "Kon Tum",
		"districts": [
			{
				"district": "Thành phố Kon Tum",
				"offices": [
					{
						"name": "Công Ty TNHH Một Thành Viên Pru KTU",
						"latitude": "",
						"longtitude": "",
						"tel": [
							{
								"region": "",
								"number": "(060) 6 255 777",
								"type": ""
							},
							{
								"region": "",
								"number": "(060) 6 255 999",
								"type": ""
							}
						],
						"address": "Số nhà 311, đường Bà Triệu, P. Quyết Thắng",
						"fax": "(060) 6 255 093",
						"members": []
					}
				]
			}
		]
	},
	{
		"province": "Lai Châu",
		"districts": [
			{
				"district": "Thị xã Lai Châu",
				"offices": [
					{
						"name": "Công Ty TNHH Một Thành Viên An Bình",
						"latitude": "",
						"longtitude": "",
						"tel": [
							{
								"region": "",
								"number": "(0231) 3 791 999",
								"type": ""
							}
						],
						"address": "Số 181 Đường Trần Phú,P. Tân Phong",
						"fax": "(0231) 3 792 899",
						"members": []
					}
				]
			}
		]
	},
	{
		"province": "Lâm Đồng",
		"districts": [
			{
				"district": "Thị xã Bảo Lộc",
				"offices": [
					{
						"name": "Công Ty TNHH DV-TM Phan Nguyễn",
						"latitude": "",
						"longtitude": "",
						"tel": [
							{
								"region": "",
								"number": "(063) 3 732 509",
								"type": ""
							}
						],
						"address": "Số 563 Trần Phú, P. B'Lao",
						"fax": "(063) 3 732 505",
						"members": []
					}
				]
			},
			{
				"district": "Thành phố Đà Lạt",
				"offices": [
					{
						"name": "Công Ty TNHH Tâm Thành Khang",
						"latitude": "",
						"longtitude": "",
						"tel": [
							{
								"region": "",
								"number": "(063) 3 819 123",
								"type": ""
							}
						],
						"address": "84 Đường 3/2, P. 1",
						"fax": "(063) 3 511 009",
						"members": []
					},
					{
						"name": "Công ty TNHH Đa Thanh Nguyên",
						"latitude": "",
						"longtitude": "",
						"tel": [
							{
								"region": "",
								"number": "(063) 3541 368",
								"type": ""
							}
						],
						"address": "Số 21C Phù Đổng Thiên Vương, P. 8",
						"fax": "",
						"members": []
					},
					{
						"name": "CHI NHÁNH 1 - CÔNG TY TNHH TÂM THÀNH KHANG",
						"latitude": "",
						"longtitude": "",
						"tel": [
							{
								"region": "",
								"number": "(063) 3818299",
								"type": ""
							},
							{
								"region": "",
								"number": "(063) 3818699",
								"type": ""
							}
						],
						"address": "Tổ 2 Thôn Phát Chi , Xã Trạm Hành",
						"fax": "",
						"members": []
					},
					{
						"name": "CHI NHÁNH 2 - CÔNG TY TNHH TÂM THÀNH KHANG",
						"latitude": "",
						"longtitude": "",
						"tel": [
							{
								"region": "",
								"number": "0901234540",
								"type": ""
							}
						],
						"address": "Tổ 6 thôn 5 xã Tà Nung",
						"fax": "",
						"members": []
					}
				]
			},
			{
				"district": "Huyện Đạ Huoai",
				"offices": [
					{
						"name": "Công Ty TNHH DV-TM Phan Nguyễn - CN tại Đạ Huoai",
						"latitude": "",
						"longtitude": "",
						"tel": [
							{
								"region": "",
								"number": "(063) 3 932 222",
								"type": ""
							}
						],
						"address": "38A tổ 13, KP 6, Thị trấn Ma Đa Guôi",
						"fax": "(063) 3 875 995",
						"members": []
					}
				]
			},
			{
				"district": "Huyện Đơn Dương",
				"offices": [
					{
						"name": "Chi nhánh công Ty TNHH DV-TM Phan Nguyễn - CN tại Đơn Dương",
						"latitude": "",
						"longtitude": "",
						"tel": [
							{
								"region": "",
								"number": "(063) 3621768",
								"type": ""
							}
						],
						"address": "246 Đường 2/4, Thị Trấn Thạnh Mỹ",
						"fax": "",
						"members": []
					}
				]
			},
			{
				"district": "Huyện Đức Trọng",
				"offices": [
					{
						"name": "Công Ty TNHH DV-TM Phan Nguyễn-CN tại Đức Trọng",
						"latitude": "",
						"longtitude": "",
						"tel": [
							{
								"region": "",
								"number": "(063) 3 648 200",
								"type": ""
							}
						],
						"address": "Số 295 Thống Nhất , TT Liên Nghĩa",
						"fax": "(063) 3 648 201",
						"members": []
					}
				]
			},
			{
				"district": "Huyện Bảo Lâm",
				"offices": [
					{
						"name": "Công ty TNHH Thiên Phú An Lộc",
						"latitude": "",
						"longtitude": "",
						"tel": [
							{
								"region": "",
								"number": "(063) 396 2679",
								"type": ""
							}
						],
						"address": "Số 9, Tổ 9, Đường Trần Phú, Thị trấn Lộc Thắng",
						"fax": "(063) 396 2679",
						"members": []
					}
				]
			},
			{
				"district": "Huyện Di Linh",
				"offices": [
					{
						"name": "Chi nhánh Công ty TNHH Dịch vụ - Thương mại Phan Nguyễn",
						"latitude": "",
						"longtitude": "",
						"tel": [
							{
								"region": "",
								"number": "(063) 3 766 005",
								"type": ""
							},
							{
								"region": "",
								"number": "(063) 3 766 006",
								"type": ""
							},
							{
								"region": "",
								"number": "(063) 3 766 007",
								"type": ""
							}
						],
						"address": "Số 725 Hùng Vương, KP 10, Thị trấn Di Linh",
						"fax": "(063) 3 766 009",
						"members": []
					}
				]
			}
		]
	},
	{
		"province": "Lạng Sơn",
		"districts": [
			{
				"district": "Huyện Chi Lăng",
				"offices": [
					{
						"name": "Công Ty TNHH Chi Lan LS",
						"latitude": "",
						"longtitude": "",
						"tel": [
							{
								"region": "",
								"number": "(025) 3 720 068",
								"type": ""
							}
						],
						"address": "Số nhà 21 khu Hòa Bình 1, Thị trấn Đồng Mỏ",
						"fax": "(025) 3 720 069",
						"members": []
					}
				]
			},
			{
				"district": "Thành phố Lạng Sơn",
				"offices": [
					{
						"name": "Công Ty TNHH Hòa Phú HT",
						"latitude": "",
						"longtitude": "",
						"tel": [
							{
								"region": "",
								"number": "(025) 3 716 831",
								"type": ""
							}
						],
						"address": "Số 51A, Đường Phai Vệ, P. Vĩnh Trại",
						"fax": "(025) 3 716 832",
						"members": []
					}
				]
			}
		]
	},
	{
		"province": "Lào Cai",
		"districts": [
			{
				"district": "Thành phố Lào Cai",
				"offices": [
					{
						"name": "Công ty TNHH Một Thành Viên Phú Toàn Gia An Phúc",
						"latitude": "",
						"longtitude": "",
						"tel": [
							{
								"region": "",
								"number": "(020) 3 823 484",
								"type": ""
							},
							{
								"region": "",
								"number": "(020) 3 823 485",
								"type": ""
							}
						],
						"address": "Số 074 Đường Hoàng Liên, tổ 17, P. Cốc Lếu",
						"fax": "(020) 3 823 486",
						"members": []
					}
				]
			}
		]
	},
	{
		"province": "Long An",
		"districts": [
			{
				"district": "Huyện Bến Lức",
				"offices": [
					{
						"name": "Công Ty TNHH Bảo Hiểm Nhân Thọ Trường An",
						"latitude": "",
						"longtitude": "",
						"tel": [
							{
								"region": "",
								"number": "(072) 3 637 831",
								"type": ""
							}
						],
						"address": "Số 103 Nguyễn Hữu Thọ, khu phố 1, Thị trấn Bến Lức",
						"fax": "(072) 3 637 832",
						"members": []
					}
				]
			},
			{
				"district": "Huyện Cần Giuộc",
				"offices": [
					{
						"name": "Công Ty TNHH BHNT Cần Giuộc",
						"latitude": "",
						"longtitude": "",
						"tel": [
							{
								"region": "",
								"number": "(072) 3 874 877",
								"type": ""
							}
						],
						"address": "65A Đường Nguyễn Thị Bảy, Khu phố 2, thị trấn Cần Giuộc",
						"fax": "(072) 3 874 878",
						"members": []
					}
				]
			},
			{
				"district": "Thị Xã Kiến Tường",
				"offices": [
					{
						"name": "Công ty TNHH BHNT An Bình Long An",
						"latitude": "",
						"longtitude": "",
						"tel": [
							{
								"region": "",
								"number": "(072) 3 957 153",
								"type": ""
							}
						],
						"address": "Số 170, Quốc Lộ 62, P. 2",
						"fax": "(072) 3 958 153",
						"members": []
					}
				]
			},
			{
				"district": "Huyện Đức Hòa",
				"offices": [
					{
						"name": "CT TNHH MTV BẢO HIỂM NHƯ Ý",
						"latitude": "",
						"longtitude": "",
						"tel": [],
						"address": "Số 141, tỉnh lộ 823, ấp Chánh, xã Đức Lập Hạ",
						"fax": "",
						"members": []
					},
					{
						"name": "Công ty TNHH Bảo hiểm NT Tâm Đức",
						"latitude": "",
						"longtitude": "",
						"tel": [
							{
								"region": "",
								"number": "(072) 3 850 881",
								"type": ""
							}
						],
						"address": "Tỉnh lộ 825, Ấp Bình Tiền 1, xã Đức Hòa Hạ",
						"fax": "(072) 3 850 861",
						"members": []
					}
				]
			},
			{
				"district": "Thành phố Tân An",
				"offices": [
					{
						"name": "Công Ty TNHH BHNT Tâm An",
						"latitude": "",
						"longtitude": "",
						"tel": [
							{
								"region": "",
								"number": "(072) 3 838 757",
								"type": ""
							}
						],
						"address": "Số 17-19 Đỗ Tường Phong, Phường 2",
						"fax": "(072) 3 838 758",
						"members": []
					}
				]
			},
			{
				"district": "Thị xã Kiến Tường",
				"offices": [
					{
						"name": "Công ty TNHH Bảo Hiểm Nhân Thọ An Phú",
						"latitude": "",
						"longtitude": "",
						"tel": [
							{
								"region": "",
								"number": "(072) 3957153",
								"type": ""
							}
						],
						"address": "Số 418, khu phố 4, Phường 2",
						"fax": "(072) 3958153",
						"members": []
					}
				]
			},
			{
				"district": "Huyện Cần Đước",
				"offices": [
					{
						"name": "Công Ty TNHH BHNT Cần Giuộc - VPDD Cần Đước",
						"latitude": "",
						"longtitude": "",
						"tel": [
							{
								"region": "",
								"number": "(072) 3 881 830",
								"type": ""
							}
						],
						"address": "Số 66, Tổ 6, Khu phố 2, Thị trấn Cần Đước",
						"fax": "(072) 3 881 831",
						"members": []
					}
				]
			},
			{
				"district": "Huyện Vĩnh Hưng",
				"offices": [
					{
						"name": "Chi nhánh Công ty TNHH BHNT An Bình Long An - chi nhánh Vĩnh Hưng",
						"latitude": "",
						"longtitude": "",
						"tel": [
							{
								"region": "",
								"number": "(072) 3 979 153",
								"type": ""
							}
						],
						"address": "Đường 831, Thị trấn Vĩnh Hưng",
						"fax": "(072) 3 979 157",
						"members": []
					}
				]
			}
		]
	},
	{
		"province": "Nam Định",
		"districts": [
			{
				"district": "Huyện Hải Hậu",
				"offices": [
					{
						"name": "Công Ty TNHH Một Thành Viên Phú Trường An",
						"latitude": "",
						"longtitude": "",
						"tel": [
							{
								"region": "",
								"number": "(0350) 3 775 769",
								"type": ""
							},
							{
								"region": "",
								"number": "(0350) 3 775 789",
								"type": ""
							}
						],
						"address": "Số 308 Khu 3, Thị trấn Yên Định",
						"fax": "(0350) 3 775 799",
						"members": []
					}
				]
			},
			{
				"district": "Thành phố Nam Định",
				"offices": [
					{
						"name": "Công Ty TNHH Một Thành Viên Phú Bình Tâm",
						"latitude": "",
						"longtitude": "",
						"tel": [
							{
								"region": "",
								"number": "(0350) 3 527 779",
								"type": ""
							}
						],
						"address": "67 Lê Hồng Phong Phường Nguyễn Du",
						"fax": "(0350) 3 527 399",
						"members": []
					}
				]
			},
			{
				"district": "Huyện Xuân Trường",
				"offices": [
					{
						"name": "Công Ty TNHH Một Thành Viên Phú Trường An - Chi nhánh tại Trường Xuân",
						"latitude": "",
						"longtitude": "",
						"tel": [
							{
								"region": "",
								"number": "(0350) 3754 999",
								"type": ""
							}
						],
						"address": "Tổ dân phố 12, Thị trấn Xuân Trường",
						"fax": "(0350) 3753 888",
						"members": []
					}
				]
			}
		]
	},
	{
		"province": "Nghệ An",
		"districts": [
			{
				"district": "Thị xã Thái Hòa",
				"offices": [
					{
						"name": "Công Ty TNHH Một Thành Viên Bảo Gia",
						"latitude": "",
						"longtitude": "",
						"tel": [
							{
								"region": "",
								"number": "(038) 3 814 814",
								"type": ""
							}
						],
						"address": "Km 33, Quốc lộ 48. Phường Long Sơn",
						"fax": "(038) 3 961 961",
						"members": []
					}
				]
			},
			{
				"district": "Thị trấn Diễn Châu",
				"offices": [
					{
						"name": "Công Ty TNHH Phú Đức Thịnh",
						"latitude": "",
						"longtitude": "",
						"tel": [
							{
								"region": "",
								"number": "(038) 3 624 565",
								"type": ""
							}
						],
						"address": "Số 14, Khu Qui hoạch, Khối 3",
						"fax": "(0383) 3 624 265",
						"members": []
					}
				]
			},
			{
				"district": "Thành phố Vinh",
				"offices": [
					{
						"name": "Công Ty TNHH An Gia",
						"latitude": "",
						"longtitude": "",
						"tel": [
							{
								"region": "",
								"number": "(038) 3 512 888",
								"type": ""
							}
						],
						"address": "Số 3C Đường Mai Hắc Đế, Khối 1, P. Quán Bàu",
						"fax": "(038) 3 512 777",
						"members": []
					},
					{
						"name": "Công Ty TNHH Phú Đức Thịnh-CN Vinh",
						"latitude": "",
						"longtitude": "",
						"tel": [
							{
								"region": "",
								"number": "(038) 3 542 999",
								"type": ""
							}
						],
						"address": "Số 1 đường Phan Đình Phùng, P. Cửa Nam",
						"fax": "(038) 3 542 997",
						"members": []
					}
				]
			},
			{
				"district": "Huyện Con Cuông",
				"offices": [
					{
						"name": "Công Ty TNHH Phú Đức Thịnh-Chi Nhánh Con Cuông",
						"latitude": "",
						"longtitude": "",
						"tel": [
							{
								"region": "",
								"number": "(038) 3733 999",
								"type": ""
							}
						],
						"address": "Khối 6, thị trấn Con Cuông",
						"fax": "(038) 3736 999",
						"members": []
					}
				]
			},
			{
				"district": "Huyện Quế Phong",
				"offices": [
					{
						"name": "Công ty TNHH Một Thành Viên Bảo Gia",
						"latitude": "",
						"longtitude": "",
						"tel": [
							{
								"region": "",
								"number": "(038) 388 5688",
								"type": ""
							}
						],
						"address": "Khối 7, Thị trấn Kim Sơn, Huyện Quế Phong, Tỉnh Nghệ An",
						"fax": "(038) 388 5680",
						"members": []
					}
				]
			},
			{
				"district": "Huyện Kỳ Sơn",
				"offices": [
					{
						"name": "Công Ty TNHH Phú Đức Thịnh-Chi nhánh Kỳ Sơn",
						"latitude": "",
						"longtitude": "",
						"tel": [
							{
								"region": "",
								"number": "(038) 3751 999",
								"type": ""
							}
						],
						"address": "Khối 2, Thị trấn Mường Xén, Huyện Kỳ Sơn, Tỉnh Nghệ An",
						"fax": "(038) 3933 999",
						"members": []
					}
				]
			},
			{
				"district": "Huyện Tân Kỳ",
				"offices": [
					{
						"name": "Công Ty TNHH Phú Đức Thịnh-Chi Nhánh Tân Kỳ",
						"latitude": "",
						"longtitude": "",
						"tel": [
							{
								"region": "",
								"number": "(038) 3973 999",
								"type": ""
							}
						],
						"address": "Khối 8, thị trấn Tân Kỳ, huyện Tân Kỳ, tỉnh Nghệ An",
						"fax": "(038) 3975 999",
						"members": []
					}
				]
			},
			{
				"district": "Huyện Thanh Chương",
				"offices": [
					{
						"name": "Chi nhánh công ty TNHH An Gia",
						"latitude": "",
						"longtitude": "",
						"tel": [
							{
								"region": "",
								"number": "(038) 38681869",
								"type": ""
							}
						],
						"address": "Khối 9, thị trấn Thanh Chương, huyện Thanh Chương, tỉnh Nghệ An",
						"fax": "(038) 38681889",
						"members": []
					}
				]
			},
			{
				"district": "Huyện Quỳnh Lưu",
				"offices": [
					{
						"name": "Cty TNHH Phú Đức Thịnh-Chi nhánh Quỳnh Lưu",
						"latitude": "",
						"longtitude": "",
						"tel": [
							{
								"region": "",
								"number": "(038) 8 642 999",
								"type": ""
							}
						],
						"address": "Số 24, Thị trấn Cầu Giát",
						"fax": "(038) 8 642 888",
						"members": []
					}
				]
			},
			{
				"district": "Huyện Quỳ Châu",
				"offices": [
					{
						"name": "Chi nhánh 01 công ty TNHH một thành viên Bảo Gia",
						"latitude": "",
						"longtitude": "",
						"tel": [
							{
								"region": "",
								"number": "(038) 3884 999",
								"type": ""
							}
						],
						"address": "Khối 4 thị trấn Quỳ Châu, huyện Quỳ Châu, tỉnh Nghệ An",
						"fax": "(038) 3884 789",
						"members": []
					}
				]
			},
			{
				"district": "Huyện Quỳ Hợp",
				"offices": [
					{
						"name": "Công ty TNHH Một Thành Viên Bảo Gia",
						"latitude": "",
						"longtitude": "",
						"tel": [
							{
								"region": "",
								"number": "(038) 3 988 666",
								"type": ""
							}
						],
						"address": "KM52, trục mặt đường 48, xã Nghĩa Xuân",
						"fax": "(038) 3 988 555",
						"members": []
					}
				]
			},
			{
				"district": "Huyện Đô Lương",
				"offices": [
					{
						"name": "Công ty TNHH Phú An Bảo",
						"latitude": "",
						"longtitude": "",
						"tel": [
							{
								"region": "",
								"number": "(038) 3 696 888",
								"type": ""
							}
						],
						"address": "Khối 8, Thị trấn Đô Lương",
						"fax": "(038) 3 696 999",
						"members": []
					}
				]
			}
		]
	},
	{
		"province": "Ninh Bình",
		"districts": [
			{
				"district": "Thành phố Ninh Bình",
				"offices": [
					{
						"name": "Công Ty TNHH Phú Tâm An Ninh Bình",
						"latitude": "",
						"longtitude": "",
						"tel": [
							{
								"region": "",
								"number": "(030) 3899511",
								"type": ""
							}
						],
						"address": "Số 263 Đường Trần Hưng Đạo, phố Bình Hòa, phường Ninh Khánh",
						"fax": "(030) 3899500",
						"members": []
					}
				]
			}
		]
	},
	{
		"province": "Ninh Thuận",
		"districts": [
			{
				"district": "Thành phố Phan Rang-Tháp Chàm",
				"offices": [
					{
						"name": "Công Ty TNHH Thành Gia",
						"latitude": "",
						"longtitude": "",
						"tel": [
							{
								"region": "",
								"number": "(068) 3 835 600",
								"type": ""
							}
						],
						"address": "318 Ngô Gia Tự, Phường Tấn Tài",
						"fax": "(068) 3 835 699",
						"members": []
					}
				]
			}
		]
	},
	{
		"province": "Phú Thọ",
		"districts": [
			{
				"district": "Thành phố Việt Trì",
				"offices": [
					{
						"name": "Doanh nghiệp Tư nhân Trường Khang",
						"latitude": "",
						"longtitude": "",
						"tel": [
							{
								"region": "",
								"number": "(0210) 6 251 932",
								"type": ""
							}
						],
						"address": "Số 2419 Đại lộ Hùng Vương, P. Nông Trang",
						"fax": "(0210) 6 251 939",
						"members": []
					}
				]
			},
			{
				"district": "Thị xã Phú Thọ",
				"offices": [
					{
						"name": "Doanh Nghiệp Tư Nhân Trường Khang tại Thị xã Phú Thọ ",
						"latitude": "",
						"longtitude": "",
						"tel": [
							{
								"region": "",
								"number": "(0210) 3 950 777",
								"type": ""
							}
						],
						"address": "Khu 18, xã Phú Hộ",
						"fax": "(0210) 3 950 779",
						"members": []
					}
				]
			}
		]
	},
	{
		"province": "Phú Yên",
		"districts": [
			{
				"district": "Thành phố Tuy Hòa",
				"offices": [
					{
						"name": "Công Ty TNHH Ánh Hòa Phương Nam",
						"latitude": "",
						"longtitude": "",
						"tel": [
							{
								"region": "",
								"number": "(057) 3 824 428",
								"type": ""
							}
						],
						"address": "111 Trần Hưng Đạo, Phường 1",
						"fax": "(057) 3 826 299",
						"members": []
					}
				]
			},
			{
				"district": "Thị xã Sông Cầu",
				"offices": [
					{
						"name": "Công Ty TNHH Ánh Hòa Phương Nam tại Sông Cầu",
						"latitude": "",
						"longtitude": "",
						"tel": [
							{
								"region": "",
								"number": "(057) 3 876 989",
								"type": ""
							}
						],
						"address": "34 Trần Hưng Đạo, phường Xuân Phú",
						"fax": "(057) 3 876 998",
						"members": []
					}
				]
			}
		]
	},
	{
		"province": "Quảng Bình",
		"districts": [
			{
				"district": "Huyện Quảng Trạch",
				"offices": [
					{
						"name": "Công ty TNHH Tổng Đại Lý Bảo Hiểm Phúc Bình An",
						"latitude": "",
						"longtitude": "",
						"tel": [
							{
								"region": "",
								"number": "(052) 3 511 888",
								"type": ""
							}
						],
						"address": "374 Quang Trung, Thị trấn Ba Đồn",
						"fax": "(052) 3 519 555",
						"members": []
					}
				]
			},
			{
				"district": "Thành phố Đồng Hới",
				"offices": [
					{
						"name": "Công ty TNHH Tổng đại lý BH Phúc An Gia",
						"latitude": "",
						"longtitude": "",
						"tel": [
							{
								"region": "",
								"number": "(052) 3 818 255",
								"type": ""
							}
						],
						"address": "Số 190 Trần Hưng Đạo, P. Đồng Phú",
						"fax": "(052) 3 818 252",
						"members": []
					}
				]
			},
			{
				"district": "Huyện Lệ Thủy",
				"offices": [
					{
						"name": "Chi nhánh Công ty TNHH Tổng đại lý BH Phúc An Gia",
						"latitude": "",
						"longtitude": "",
						"tel": [
							{
								"region": "",
								"number": "(052) 3 966 009",
								"type": ""
							}
						],
						"address": "Tổ dân phố 5, Thị trấn Kiến Giang",
						"fax": "(052) 3 966 007",
						"members": []
					}
				]
			}
		]
	},
	{
		"province": "Quảng Nam",
		"districts": [
			{
				"district": "Thành phố Tam Kỳ",
				"offices": [
					{
						"name": "Công Ty TNHH Bảo Hiểm Quảng Nam",
						"latitude": "",
						"longtitude": "",
						"tel": [
							{
								"region": "",
								"number": "(0510) 3 829 235",
								"type": ""
							}
						],
						"address": "Lô A 15 Trần Quý Cáp, P. Tân Thạnh",
						"fax": "(0510) 3 829 238",
						"members": []
					}
				]
			},
			{
				"district": "Núi Thành",
				"offices": [
					{
						"name": "Công ty TNHH Một thành viên Núi Thành Quảng Ngãi - Chi nhánh Núi Thành",
						"latitude": "",
						"longtitude": "",
						"tel": [
							{
								"region": "",
								"number": "(0510) 3 570 075",
								"type": ""
							}
						],
						"address": "300 Phạm Văn Đồng, KP II, thị trấn Núi Thành",
						"fax": "(0510) 3 570 077",
						"members": []
					}
				]
			},
			{
				"district": "Huyện Duy Xuyên",
				"offices": [
					{
						"name": "Công Ty TNHH Bảo Hiểm Quang Nam-CN tại Nam Phước",
						"latitude": "",
						"longtitude": "",
						"tel": [
							{
								"region": "",
								"number": "(0510) 3 777 236",
								"type": ""
							},
							{
								"region": "",
								"number": "(0510) 3 777 237",
								"type": ""
							}
						],
						"address": "Quốc lộ 1A, KP. Long Xuyên 2, Thị trấn Nam Phước",
						"fax": "(0510) 3 777 238",
						"members": []
					}
				]
			},
			{
				"district": "Thành phố Hội An",
				"offices": [
					{
						"name": "Địa điểm kinh doanh-Công ty TNHH Bảo Hiểm Quảng Nam",
						"latitude": "",
						"longtitude": "",
						"tel": [
							{
								"region": "",
								"number": "(0510) 3923237",
								"type": ""
							}
						],
						"address": "Số 315A Nguyễn Tất Thành, P. Thanh Hà",
						"fax": "(0510) 3923238",
						"members": []
					}
				]
			},
			{
				"district": "Huyện Quế Sơn",
				"offices": [
					{
						"name": "Công ty TNHH Đại lý bảo hiểm Tới Đồng Thắng",
						"latitude": "",
						"longtitude": "",
						"tel": [
							{
								"region": "",
								"number": "(0510) 3886399",
								"type": ""
							}
						],
						"address": "Thôn 7, xã Hương An",
						"fax": "",
						"members": []
					}
				]
			}
		]
	},
	{
		"province": "Quảng Ngãi",
		"districts": [
			{
				"district": "Huyện Đức Phổ",
				"offices": [
					{
						"name": "Công Ty TNHH Một Thành Viên Cát Long",
						"latitude": "",
						"longtitude": "",
						"tel": [
							{
								"region": "",
								"number": "(055) 3 976 587",
								"type": ""
							}
						],
						"address": "Khu dân cư Phú Hòa, QL1A, thôn Vĩnh Bình, xã Phổ Ninh",
						"fax": "(055) 3 976 588",
						"members": []
					}
				]
			},
			{
				"district": "Thành phố Quảng Ngãi",
				"offices": [
					{
						"name": "Công ty TNHH Một Thành Viên Bảo Hiểm Quảng Ngãi",
						"latitude": "",
						"longtitude": "",
						"tel": [
							{
								"region": "",
								"number": "(055) 3 835 959",
								"type": ""
							}
						],
						"address": "Số 4 bà Triệu, P. Lê Hồng Phong",
						"fax": "(055) 3 835 956",
						"members": []
					}
				]
			},
			{
				"district": "Huyện Bình Sơn",
				"offices": [
					{
						"name": "VPĐD công ty TNHH Một thành viên bảo hiểm Quảng Ngãi",
						"latitude": "",
						"longtitude": "",
						"tel": [
							{
								"region": "",
								"number": "(055) 3 515 516",
								"type": ""
							}
						],
						"address": "Tổ dân phố 2, Thị trấn Châu Ổ",
						"fax": "(055) 3 515 517",
						"members": []
					}
				]
			},
			{
				"district": "Huyện Mộ Đức",
				"offices": [
					{
						"name": "Cty TNHH một thành viên Cát Long",
						"latitude": "",
						"longtitude": "",
						"tel": [
							{
								"region": "",
								"number": "(055) 6526 879",
								"type": ""
							}
						],
						"address": "Tổ dân phố 2, thị trấn Mộ Đức",
						"fax": "(055) 6526 879",
						"members": []
					}
				]
			}
		]
	},
	{
		"province": "Quảng Ninh",
		"districts": [
			{
				"district": "Thành phố Móng Cái",
				"offices": [
					{
						"name": "Công Ty TNHH Anh Quốc",
						"latitude": "",
						"longtitude": "",
						"tel": [
							{
								"region": "",
								"number": "(033) 3 778 858",
								"type": ""
							},
							{
								"region": "",
								"number": "(033) 3 884 836",
								"type": ""
							}
						],
						"address": "Số 120 Đường Đông Trì, Phường Trần Phú",
						"fax": "(033) 3 778 848",
						"members": []
					}
				]
			},
			{
				"district": "Thành phố Hạ Long",
				"offices": [
					{
						"name": "Công Ty TNHH Phú Hưng Thịnh",
						"latitude": "",
						"longtitude": "",
						"tel": [
							{
								"region": "",
								"number": "(033) 3 816 448",
								"type": ""
							}
						],
						"address": "Số 19, Đường 25/4, Phường Hồng Gai,",
						"fax": "(033) 3 816 458",
						"members": []
					},
					{
						"name": "Công Ty TNHH Anh Quốc - CN tại Bãi Cháy",
						"latitude": "",
						"longtitude": "",
						"tel": [
							{
								"region": "",
								"number": "(033) 3 646 066",
								"type": ""
							}
						],
						"address": "Tổ 10 - Khu 5 Đường Hạ Long - P Bãi Cháy",
						"fax": "(033) 3 646 688",
						"members": []
					}
				]
			},
			{
				"district": "Thị xã Cẩm Phả",
				"offices": [
					{
						"name": "Công Ty TNHH Anh Quốc-CN tại Cẩm Phả",
						"latitude": "",
						"longtitude": "",
						"tel": [
							{
								"region": "",
								"number": "(033) 3 969 333",
								"type": ""
							}
						],
						"address": "Số 250 đường Trần Phú, P. Cẩm Thành",
						"fax": "(033) 3 969 848",
						"members": []
					}
				]
			},
			{
				"district": "Thành phố Uông Bí",
				"offices": [
					{
						"name": "Chi nhánh Số 2 Công ty TNHH Phúc An Lộc",
						"latitude": "",
						"longtitude": "",
						"tel": [
							{
								"region": "",
								"number": "(033) 356 6868",
								"type": ""
							}
						],
						"address": "Tầng 3 tòa nhà Yên Thanh, số 299 Đường Trần Nhân Tông, Phường Yên Thanh",
						"fax": "(033) 385 5091",
						"members": []
					}
				]
			},
			{
				"district": "Huyện Hải Hà",
				"offices": [
					{
						"name": "Công ty TNHH Anh Quốc tại Huyện Hải Hà Quảng Ninh",
						"latitude": "",
						"longtitude": "",
						"tel": [
							{
								"region": "",
								"number": "(033) 376 1988",
								"type": ""
							}
						],
						"address": "Tổ 5, Phường Quang Chinh",
						"fax": "(033) 376 1839",
						"members": []
					}
				]
			},
			{
				"district": "Huyện Đông Triều",
				"offices": [
					{
						"name": "Cty TNHH MTV Bảo hiểm Hiếu Phát",
						"latitude": "",
						"longtitude": "",
						"tel": [
							{
								"region": "",
								"number": "(033) 6266009",
								"type": ""
							}
						],
						"address": "Số 195, tổ 5 khu Hoàng Hoa Thám, P. Mạo Khê",
						"fax": "(033) 6266001",
						"members": []
					}
				]
			}
		]
	},
	{
		"province": "Quảng Trị",
		"districts": [
			{
				"district": "Thành phố Đông Hà",
				"offices": [
					{
						"name": "Công Ty TNHH Một Thành Viên Phúc An Khang",
						"latitude": "",
						"longtitude": "",
						"tel": [
							{
								"region": "",
								"number": "(053) 3 551 571",
								"type": ""
							}
						],
						"address": "Số 49 Nguyễn Huệ, P. 1",
						"fax": "(053) 3 551 574",
						"members": []
					}
				]
			},
			{
				"district": "Huyên Vĩnh Linh",
				"offices": [
					{
						"name": "Công ty TNHH MTV Phúc An Khang",
						"latitude": "",
						"longtitude": "",
						"tel": [
							{
								"region": "",
								"number": "(053) 3 610 055",
								"type": ""
							}
						],
						"address": "Khóm Lao Động, TT/ Hồ Xá",
						"fax": "(053) 3 610 068",
						"members": []
					}
				]
			},
			{
				"district": "Thị xã Quảng Trị",
				"offices": [
					{
						"name": "Công ty TNHH Một Thành Viên Đại lý Bảo hiểm Phước Thịnh Hưng",
						"latitude": "",
						"longtitude": "",
						"tel": [
							{
								"region": "",
								"number": "(053) 3661555",
								"type": ""
							}
						],
						"address": "244 Trần Hưng Đạo, Phường 2",
						"fax": "(053) 3661555",
						"members": []
					}
				]
			},
			{
				"district": "Thành phố Đông Hà",
				"offices": [
					{
						"name": "Cty TNHH một thành viên đại lý bảo hiểm Phước Thịnh Hưng",
						"latitude": "",
						"longtitude": "",
						"tel": [
							{
								"region": "",
								"number": "(053) 3899 555",
								"type": ""
							}
						],
						"address": "299 Lê Duẫn, Phường Đông Lễ",
						"fax": "",
						"members": []
					}
				]
			}
		]
	},
	{
		"province": "Sóc Trăng",
		"districts": [
			{
				"district": "Thành phố Sóc Trăng",
				"offices": [
					{
						"name": "Công Ty TNHH Lý Hoài Tâm",
						"latitude": "",
						"longtitude": "",
						"tel": [
							{
								"region": "",
								"number": "(079) 3 645 333",
								"type": ""
							},
							{
								"region": "",
								"number": "(079) 3 645 334",
								"type": ""
							}
						],
						"address": "Số 247 Phú Lợi, P. 2",
						"fax": "(079) 3 645 335",
						"members": []
					}
				]
			},
			{
				"district": "Thị xã Vĩnh Châu",
				"offices": [
					{
						"name": "Công Ty TNHH Lý Hoài Tâm",
						"latitude": "",
						"longtitude": "",
						"tel": [
							{
								"region": "",
								"number": "(079) 3 911 234",
								"type": ""
							}
						],
						"address": "Số 211A, Đường 30/4, P 1",
						"fax": "(079) 3 911 236",
						"members": []
					}
				]
			},
			{
				"district": "Huyện Long Phú",
				"offices": [
					{
						"name": "Công ty TNHH Lý Hoài Tâm-Chi nhánh Long Phú",
						"latitude": "",
						"longtitude": "",
						"tel": [
							{
								"region": "",
								"number": "(079) 3 844 555",
								"type": ""
							}
						],
						"address": "Số 261/4 Đoàn Thế Trung, Ấp 4, Thị trấn Long Phú",
						"fax": "(079) 3 844 556",
						"members": []
					}
				]
			}
		]
	},
	{
		"province": "Sơn La",
		"districts": [
			{
				"district": "Thành phố Sơn La",
				"offices": [
					{
						"name": "Công Ty TNHH Phú-An Khang",
						"latitude": "",
						"longtitude": "",
						"tel": [
							{
								"region": "",
								"number": "(022) 3 751 809",
								"type": ""
							}
						],
						"address": "Số 295 Trần Đăng Ninh, tổ 7, P. Quyết Tâm",
						"fax": "(022) 3 751 877",
						"members": []
					}
				]
			},
			{
				"district": "Huyện Mai Sơn",
				"offices": [
					{
						"name": "Công Ty TNHH Hưng Thịnh Sơn La",
						"latitude": "",
						"longtitude": "",
						"tel": [
							{
								"region": "",
								"number": "(022) 3 745 599",
								"type": ""
							}
						],
						"address": "Số 74, tiểu khu 20, Thị trấn Hát Lót",
						"fax": "(022) 3 745 595",
						"members": []
					}
				]
			},
			{
				"district": "Huyện Mộc Châu",
				"offices": [
					{
						"name": "Công ty TNHH Lộc Bách",
						"latitude": "",
						"longtitude": "",
						"tel": [
							{
								"region": "",
								"number": "(022) 3 868 863",
								"type": ""
							}
						],
						"address": "Tiểu khu 12, Thị trấn Mộc Châu",
						"fax": "(022) 3 868 330",
						"members": []
					}
				]
			}
		]
	},
	{
		"province": "Tây Ninh",
		"districts": [
			{
				"district": "Huyện Trảng Bàng",
				"offices": [
					{
						"name": "Công Ty TNHH Một Thành Viên Phú Tấn Phát Tài",
						"latitude": "",
						"longtitude": "",
						"tel": [
							{
								"region": "",
								"number": "(066) 3 890 888",
								"type": ""
							}
						],
						"address": "Căn số 5, Trung tâm thương mại , Quốc lộ 22, khu phố Lộc An, Thị Trấn Trảng Bàng",
						"fax": "(066) 3 890 886",
						"members": []
					}
				]
			},
			{
				"district": "Huyện Tân Châu",
				"offices": [
					{
						"name": "Công Ty TNHH Một Thành Viên An Bảo Gia",
						"latitude": "",
						"longtitude": "",
						"tel": [
							{
								"region": "",
								"number": "(066) 3 731 731",
								"type": ""
							}
						],
						"address": "Số 868A, Đường Tôn Đức Thắng, Ấp Thạnh Hiệp, Xã Thạnh Đông",
						"fax": "(066) 3 731 733",
						"members": []
					}
				]
			},
			{
				"district": "Thị xã Tây Ninh",
				"offices": [
					{
						"name": "Công Ty TNHH Một Thành Viên Phú Trí Thành",
						"latitude": "",
						"longtitude": "",
						"tel": [
							{
								"region": "",
								"number": "(066) 3 818 431",
								"type": ""
							}
						],
						"address": "Số 429, đường Cách Mạng Tháng 8, Khu phố 1, P. 3",
						"fax": "(066) 3 818 430",
						"members": []
					}
				]
			},
			{
				"district": "Huyện Tân Biên",
				"offices": [
					{
						"name": "Công Ty TNHH Một Thành Viên An Bảo Gia",
						"latitude": "",
						"longtitude": "",
						"tel": [
							{
								"region": "",
								"number": "(066) 371 4444",
								"type": ""
							}
						],
						"address": "Số 91 Nguyễn Chí Thanh, khu phố 2, Thị trấn Tân Biên",
						"fax": "(066) 371 7188",
						"members": []
					}
				]
			},
			{
				"district": "Huyện Gò Dầu",
				"offices": [
					{
						"name": "Công Ty TNHH Một Thành Viên Phú Tấn Phát Tài-Chi nhánh Gò Dầu",
						"latitude": "",
						"longtitude": "",
						"tel": [
							{
								"region": "",
								"number": "(066) 3 890 888",
								"type": ""
							}
						],
						"address": "Tổ 2, Ấp Trâm Vàng 2, Xã Thanh Phước",
						"fax": "",
						"members": []
					}
				]
			},
			{
				"district": "Huyện Châu Thành",
				"offices": [
					{
						"name": "Công Ty TNHH Một Thành Viên Phú Trí Thành-Chi nhánh tại Châu Thành",
						"latitude": "",
						"longtitude": "",
						"tel": [
							{
								"region": "",
								"number": "(066) 3790307",
								"type": ""
							}
						],
						"address": "Tổ 11, Khu phố 3, Thị trấn Châu Thành",
						"fax": "",
						"members": []
					}
				]
			}
		]
	},
	{
		"province": "Thái Bình",
		"districts": [
			{
				"district": "Huyện Đông Hưng",
				"offices": [
					{
						"name": "Công Ty TNHH Thiện An",
						"latitude": "",
						"longtitude": "",
						"tel": [
							{
								"region": "",
								"number": "(036) 3 555 118",
								"type": ""
							}
						],
						"address": "Tổ 2 – Thị trấn Đông Hưng",
						"fax": "(036) 3 555 119",
						"members": []
					}
				]
			},
			{
				"district": "Thành phố Thái Bình",
				"offices": [
					{
						"name": "Công Ty TNHH Lộc Vượng",
						"latitude": "",
						"longtitude": "",
						"tel": [
							{
								"region": "",
								"number": "(036) 3 844 666",
								"type": ""
							}
						],
						"address": "L304, Đường Trần Thái Tông, Tổ 28, P Trần Hưng Đạo",
						"fax": "(036) 3 844 464",
						"members": []
					}
				]
			},
			{
				"district": "Huyện Hưng Hà",
				"offices": [
					{
						"name": "Chi nhánh công ty TNHH Lộc Vượng tại Hưng Hà",
						"latitude": "",
						"longtitude": "",
						"tel": [
							{
								"region": "",
								"number": "(036) 6 275 222",
								"type": ""
							}
						],
						"address": "Nhà ông Đặng Gia Hạnh, khu Nhân Cầu 1, Thị trấn Hưng Hà",
						"fax": "(036) 6 275 333",
						"members": []
					}
				]
			},
			{
				"district": "Huyện Thái Thụy",
				"offices": [
					{
						"name": "Công ty TNHH Thiện An-Chi nhánh tại Thái Thụy",
						"latitude": "",
						"longtitude": "",
						"tel": [
							{
								"region": "",
								"number": "(036) 3555118",
								"type": ""
							}
						],
						"address": "Số 72, Khu 7, thị trấn Diêm Điền",
						"fax": "(036) 3555119",
						"members": []
					}
				]
			}
		]
	},
	{
		"province": "Thái Nguyên",
		"districts": [
			{
				"district": "Thành phố Thái Nguyên",
				"offices": [
					{
						"name": "Công Ty TNHH An Gia",
						"latitude": "",
						"longtitude": "",
						"tel": [
							{
								"region": "",
								"number": "(0280) 3 659 699",
								"type": ""
							},
							{
								"region": "",
								"number": "(0280) 3 659 799",
								"type": ""
							}
						],
						"address": "Lô 1, Tổ 3, khu dân cư số 5, đường Minh Cầu, P. Phan Đình Phùng",
						"fax": "(0280) 3 659 899",
						"members": []
					}
				]
			},
			{
				"district": "Huyện Phổ Yên",
				"offices": [
					{
						"name": "Công Ty TNHH Phúc Lộc Thọ Thái",
						"latitude": "",
						"longtitude": "",
						"tel": [
							{
								"region": "",
								"number": "(0280) 3 764 499",
								"type": ""
							}
						],
						"address": "Số 54B, tiểu khu 2, thị trấn Ba Hàng",
						"fax": "(0280) 3 764 599",
						"members": []
					}
				]
			},
			{
				"district": "Huyện Phú Bình",
				"offices": [
					{
						"name": "Công Ty TNHH Phúc Lộc Thọ Thái- Chi nhánh tại Phú Bình",
						"latitude": "",
						"longtitude": "",
						"tel": [
							{
								"region": "",
								"number": "(0280) 3 767 899",
								"type": ""
							}
						],
						"address": "Tổ 2, thị trấn Hương Sơn",
						"fax": "(0280) 3 576 589",
						"members": []
					}
				]
			},
			{
				"district": "Huyện Đại Từ",
				"offices": [
					{
						"name": "Công ty TNHH Toàn Gia An Phát",
						"latitude": "",
						"longtitude": "",
						"tel": [
							{
								"region": "",
								"number": "(0280) 3 924 899",
								"type": ""
							}
						],
						"address": "Xóm Phố Dầu, xã Tiên Hội",
						"fax": "(0280) 3 924 799",
						"members": []
					}
				]
			},
			{
				"district": "Huyện Phú Lương",
				"offices": [
					{
						"name": "Chi nhánh Phú Thịnh Vượng - Công ty TNHH Toàn Gia An Phát",
						"latitude": "",
						"longtitude": "",
						"tel": [
							{
								"region": "",
								"number": "(0280) 377 4568",
								"type": ""
							}
						],
						"address": "Số 445 tiểu khu Trần Phú, thị trấn Đu",
						"fax": "",
						"members": []
					}
				]
			},
			{
				"district": "Thành phố Thái Nguyên",
				"offices": [
					{
						"name": "Công ty TNHH Tiến Phát Thái Nguyên",
						"latitude": "",
						"longtitude": "",
						"tel": [
							{
								"region": "",
								"number": "0983686608",
								"type": ""
							}
						],
						"address": "Số 259 đường Quang Trung, tổ 12, phường Tân Thịnh",
						"fax": "",
						"members": []
					}
				]
			}
		]
	},
	{
		"province": "Thanh Hóa",
		"districts": [
			{
				"district": "Huyện Ngọc Lặc",
				"offices": [
					{
						"name": "Công Ty TNHH Thanh Ngọc",
						"latitude": "",
						"longtitude": "",
						"tel": [
							{
								"region": "",
								"number": "(037) 3 576 708",
								"type": ""
							},
							{
								"region": "",
								"number": "(037) 3 576 788",
								"type": ""
							}
						],
						"address": "Số 86 Lê Duẩn, Thị Trấn Ngọc Lặc",
						"fax": "(037) 3 576 799",
						"members": []
					}
				]
			},
			{
				"district": "Thành phố Thanh Hóa",
				"offices": [
					{
						"name": "Công Ty TNHH An Khánh Nguyên",
						"latitude": "",
						"longtitude": "",
						"tel": [
							{
								"region": "",
								"number": "(037) 3 716 355",
								"type": ""
							}
						],
						"address": "Lô 5, khu liên kế, Đường Nguyễn Chí Thanh, P. Đông Thọ",
						"fax": "(037) 3 750 299",
						"members": []
					},
					{
						"name": "Công ty TNHH Phú Nhật Anh",
						"latitude": "",
						"longtitude": "",
						"tel": [
							{
								"region": "",
								"number": "(037) 3 728 350",
								"type": ""
							}
						],
						"address": " Lô 25 MBQH số 103 XDTH/UB, đường Bà Triệu",
						"fax": "(037) 3 728 439",
						"members": []
					}
				]
			},
			{
				"district": "Thị xã Bỉm Sơn",
				"offices": [
					{
						"name": "Công Ty TNHH Thanh Sơn Nga",
						"latitude": "",
						"longtitude": "",
						"tel": [
							{
								"region": "",
								"number": "(037) 3 778 599",
								"type": ""
							}
						],
						"address": "192-194 Nguyễn Huệ, P. Ngọc Trạo",
						"fax": "(037) 3 771 386",
						"members": []
					}
				]
			},
			{
				"district": "Huyện Yên Định",
				"offices": [
					{
						"name": "Cty TNHH Thanh Sơn Nga - CN số 1",
						"latitude": "",
						"longtitude": "",
						"tel": [
							{
								"region": "",
								"number": "(037) 3 869 989",
								"type": ""
							}
						],
						"address": "Thôn 5, Xã Định Long",
						"fax": "(037) 3 513 979",
						"members": []
					}
				]
			},
			{
				"district": "Thị xã Sầm Sơn",
				"offices": [
					{
						"name": "Công Ty TNHH Phú Nhật Anh-Chi nhánh Sầm Sơn",
						"latitude": "",
						"longtitude": "",
						"tel": [
							{
								"region": "",
								"number": "(037) 3826 838",
								"type": ""
							}
						],
						"address": "57A, khu phố Tài Lộc, phường Trường Sơn",
						"fax": "(037) 3726 737",
						"members": []
					}
				]
			},
			{
				"district": "Huyện Vĩnh Lộc",
				"offices": [
					{
						"name": "Công Ty TNHH An Khánh Nguyên - Chi nhánh số 1",
						"latitude": "",
						"longtitude": "",
						"tel": [
							{
								"region": "",
								"number": "(037) 3716355",
								"type": ""
							}
						],
						"address": "Phố Mới, Xã Vĩnh Tiến",
						"fax": "(037) 3750299",
						"members": []
					}
				]
			}
		]
	},
	{
		"province": "Thừa Thiên Huế",
		"districts": [
			{
				"district": "Thị xã Hương Thủy",
				"offices": [
					{
						"name": "Công Ty TNHH Một Thành Viên Dương Sơn Hùng",
						"latitude": "",
						"longtitude": "",
						"tel": [
							{
								"region": "",
								"number": "(054) 3 862 333",
								"type": ""
							}
						],
						"address": "Thôn 1B, Xã Thủy Phù",
						"fax": "(054) 3 955 377",
						"members": []
					}
				]
			},
			{
				"district": "Thành phố Huế",
				"offices": [
					{
						"name": "Công Ty TNHH Một Thành Viên Phát Lê",
						"latitude": "",
						"longtitude": "",
						"tel": [
							{
								"region": "",
								"number": "(054) 3 934 999",
								"type": ""
							}
						],
						"address": "108 Trường Chinh, P. An Đông",
						"fax": "(054) 3 934 998",
						"members": []
					},
					{
						"name": "Văn phòng đại diện cty TNHH MTV Bảo hiểm Phúc Hưng Vinh",
						"latitude": "",
						"longtitude": "",
						"tel": [
							{
								"region": "",
								"number": "(054) 3810 559",
								"type": ""
							}
						],
						"address": "Sô 12 Nguyễn Huệ, P. Vĩnh Ninh",
						"fax": "",
						"members": []
					}
				]
			},
			{
				"district": "Huyện Phú Lộc",
				"offices": [
					{
						"name": "VPDD công ty TNHH MTV Dương Sơn Hùng tại Phú Lộc",
						"latitude": "",
						"longtitude": "",
						"tel": [
							{
								"region": "",
								"number": "(054) 3871686",
								"type": ""
							}
						],
						"address": "Số 180 Lý Thánh Tông, TT. Phú Lộc",
						"fax": "",
						"members": []
					}
				]
			}
		]
	},
	{
		"province": "Tiền Giang",
		"districts": [
			{
				"district": "Thị xã Gò Công",
				"offices": [
					{
						"name": "Công Ty TNHH Bảo Hiểm Nhân Thọ Phú Thịnh",
						"latitude": "",
						"longtitude": "",
						"tel": [
							{
								"region": "",
								"number": "(073) 3 514 888",
								"type": ""
							}
						],
						"address": "Số 169 Trương Định, Khu Phố 2, Phường 5",
						"fax": "(073) 3 513 828",
						"members": []
					}
				]
			},
			{
				"district": "Thành phố Mỹ Tho",
				"offices": [
					{
						"name": "Công Ty TNHH Đại Lý Bảo Hiểm Nhân Thọ An Lộc",
						"latitude": "",
						"longtitude": "",
						"tel": [
							{
								"region": "",
								"number": "(073) 3 979 631",
								"type": ""
							}
						],
						"address": "922F, đường Trần Hưng Đạo, P. 5",
						"fax": "(073) 3 979 633",
						"members": []
					}
				]
			},
			{
				"district": "Huyện Cai Lậy",
				"offices": [
					{
						"name": "Công Ty TNHH Đại Lý Bảo Hiểm Nhân Thọ An Lộc",
						"latitude": "",
						"longtitude": "",
						"tel": [
							{
								"region": "",
								"number": "(073) 3 919 633",
								"type": ""
							}
						],
						"address": "Số 23/630 QL. 1, khu 5, Thị trấn Cai Lậy",
						"fax": "(073) 3 829 633",
						"members": []
					}
				]
			},
			{
				"district": "Huyện Gò Công Tây",
				"offices": [
					{
						"name": "Công Ty TNHH Bảo Hiểm Nhân Thọ Phú Thịnh-Chi nhánh tại Gò Công Tây",
						"latitude": "",
						"longtitude": "",
						"tel": [
							{
								"region": "",
								"number": "(073) 3537 999",
								"type": ""
							},
							{
								"region": "",
								"number": "(073) 3537 557",
								"type": ""
							}
						],
						"address": "Đường Thiện Chí, Ấp Thượng, Thị Trấn Vĩnh Bình",
						"fax": "",
						"members": []
					}
				]
			},
			{
				"district": "Huyện Cái Bè",
				"offices": [
					{
						"name": "Công ty TNHH Một Thành Viên Bảo hiểm Nhân thọ Phú Thịnh Phát",
						"latitude": "",
						"longtitude": "",
						"tel": [
							{
								"region": "",
								"number": "(073) 3819 699",
								"type": ""
							}
						],
						"address": "Ấp Hòa Phúc, Xã Hòa Khánh",
						"fax": "",
						"members": []
					}
				]
			},
			{
				"district": "Huyện Tân Phú Đông",
				"offices": [
					{
						"name": "Công ty TNHH Một Thành Viên Bảo hiểm Nhân thọ Bảo Tín",
						"latitude": "",
						"longtitude": "",
						"tel": [
							{
								"region": "",
								"number": "(073) 3529 955",
								"type": ""
							}
						],
						"address": "Ấp Tân Phú, Xã Phú Thạnh",
						"fax": "",
						"members": []
					}
				]
			}
		]
	},
	{
		"province": "Trà Vinh",
		"districts": [
			{
				"district": "Thành phố Trà Vinh",
				"offices": [
					{
						"name": "Công ty TNHH BHNT Tâm An Trà Vinh",
						"latitude": "",
						"longtitude": "",
						"tel": [
							{
								"region": "",
								"number": "(074) 3 868 777",
								"type": ""
							}
						],
						"address": "Số 108 Nguyễn Thị Minh Khai, khóm 8, P. 7",
						"fax": "(074) 3 868 000",
						"members": []
					}
				]
			},
			{
				"district": "Huyện Tiểu Cần",
				"offices": [
					{
						"name": "Công ty TNHH BHNT Tâm An Trà Vinh - chi nhánh tại Tiểu Cần",
						"latitude": "",
						"longtitude": "",
						"tel": [
							{
								"region": "",
								"number": "(074) 3 613 777",
								"type": ""
							}
						],
						"address": "Số 15, Khóm 3, Thị trấn Tiểu Cần",
						"fax": "(074) 3 613 555",
						"members": []
					}
				]
			},
			{
				"district": "Thị Xã Duyên Hải",
				"offices": [
					{
						"name": "Công Ty TNHH BHNT Tâm An Trà Vinh tại Duyên Hải",
						"latitude": "",
						"longtitude": "",
						"tel": [
							{
								"region": "",
								"number": "(074) 3732 777",
								"type": ""
							}
						],
						"address": "Đường 19 tháng 5, khóm 1, phường 1",
						"fax": "(074) 3732 666",
						"members": []
					}
				]
			}
		]
	},
	{
		"province": "Tuyên Quang",
		"districts": [
			{
				"district": "Thành phố Tuyên Quang",
				"offices": [
					{
						"name": "Công ty TNHH một TV Trường Khang Tuyên Quang",
						"latitude": "",
						"longtitude": "",
						"tel": [
							{
								"region": "",
								"number": "(027) 6 252 256",
								"type": ""
							}
						],
						"address": "Tầng 4, tòa nhà Vietel Tuyên Quang, Đường Bình Thuận, tổ 26, P. Tân Quang",
						"fax": "(027) 6 252 257",
						"members": []
					}
				]
			}
		]
	},
	{
		"province": "Vĩnh Long",
		"districts": [
			{
				"district": "Thị xã Vĩnh Long",
				"offices": [
					{
						"name": "Công Ty TNHH Thiên Hồng Ân",
						"latitude": "",
						"longtitude": "",
						"tel": [
							{
								"region": "",
								"number": "(070) 3 833 599",
								"type": ""
							}
						],
						"address": "Số 12, đường Nguyễn Đình Chiểu, P. 1",
						"fax": "(070) 3 833 598",
						"members": []
					}
				]
			},
			{
				"district": "Huyện Vũng Liêm",
				"offices": [
					{
						"name": "Chi nhánh công ty TNHH Thiên Hồng Ân - Cơ sở 2",
						"latitude": "",
						"longtitude": "",
						"tel": [
							{
								"region": "",
								"number": "(070) 6 255 999",
								"type": ""
							}
						],
						"address": "Số 149A, khóm 1, Thị trấn Vũng Liêm",
						"fax": "(070) 6 055 888",
						"members": []
					}
				]
			}
		]
	},
	{
		"province": "Vĩnh Phúc",
		"districts": [
			{
				"district": "Thành phố Vĩnh Yên",
				"offices": [
					{
						"name": "Công Ty TNHH Vương Quốc Anh",
						"latitude": "",
						"longtitude": "",
						"tel": [
							{
								"region": "",
								"number": "(0211) 3 726 808",
								"type": ""
							}
						],
						"address": "L3 S4 Đường Trần Phú, Khu Đô thị Chùa Hà Tiên",
						"fax": "(0211) 3 726 608",
						"members": []
					}
				]
			},
			{
				"district": "Thị xã Phúc Yên",
				"offices": [
					{
						"name": "Công Ty TNHH Vương Quốc Anh - CN tại Phúc Yên",
						"latitude": "",
						"longtitude": "",
						"tel": [
							{
								"region": "",
								"number": "(0211) 3 511 766",
								"type": ""
							}
						],
						"address": "Số B48 – CL14, Khu đô thị mới Đồng Sơn, Phường Trưng Trắc",
						"fax": "(0211) 3 511 767",
						"members": []
					}
				]
			},
			{
				"district": "Huyện Vĩnh Tường",
				"offices": [
					{
						"name": "Chi nhánh Vĩnh Tường - Công ty TNHH Vương Quốc Anh",
						"latitude": "",
						"longtitude": "",
						"tel": [
							{
								"region": "",
								"number": "(0211) 3793 558",
								"type": ""
							}
						],
						"address": "Đường Quốc Lộ 2A, thôn Sen, xã Nghĩa Hưng",
						"fax": "(0211) 3793 559",
						"members": []
					}
				]
			}
		]
	},
	{
		"province": "Bà Rịa - Vũng Tàu",
		"districts": [
			{
				"district": "Thành phố Vũng Tàu",
				"offices": [
					{
						"name": "Công Ty TNHH BẢo An Gia",
						"latitude": "",
						"longtitude": "",
						"tel": [
							{
								"region": "",
								"number": "(064) 3614111",
								"type": ""
							}
						],
						"address": "Số 173 Nam Kỳ Khởi Nghĩa, P. 3",
						"fax": "(064) 3614466",
						"members": []
					}
				]
			},
			{
				"district": "Thị xã Bà Rịa",
				"offices": [
					{
						"name": "Công Ty TNHH Bảo An Gia - Chi nhánh tại Bà Rịa",
						"latitude": "",
						"longtitude": "",
						"tel": [
							{
								"region": "",
								"number": "(064) 3741688",
								"type": ""
							},
							{
								"region": "",
								"number": "(064) 3741 588",
								"type": ""
							}
						],
						"address": "Số 38 Nguyễn Hữu Thọ, phường Phước Trung",
						"fax": "(064) 3741488",
						"members": []
					}
				]
			},
			{
				"district": "Huyện Xuyên Mộc",
				"offices": [
					{
						"name": "Công Ty TNHH Bảo An Gia - Chi nhánh tại Xuyên Mộc",
						"latitude": "",
						"longtitude": "",
						"tel": [
							{
								"region": "",
								"number": "(064) 3771368",
								"type": ""
							}
						],
						"address": "Số 102 Đường 27 tháng 4, Khu phố Phước An, Thị trấn Phước Bửu",
						"fax": "(064) 3771369",
						"members": []
					}
				]
			},
			{
				"district": "Huyện Châu Đức",
				"offices": [
					{
						"name": "Công ty TNHH Một Thành Viên Phú Long Châu",
						"latitude": "",
						"longtitude": "",
						"tel": [
							{
								"region": "",
								"number": "(064) 3882666",
								"type": ""
							}
						],
						"address": "225 Hùng Vương, Thị trấn Ngãi Giao",
						"fax": "(064) 3882686",
						"members": []
					}
				]
			},
			{
				"district": "Huyện Long Điền",
				"offices": [
					{
						"name": "Huyện Long Điền",
						"latitude": "",
						"longtitude": "",
						"tel": [
							{
								"region": "",
								"number": "(064) 3851381",
								"type": ""
							}
						],
						"address": "Số 19, Tổ 1, Ấp Phước Thọ, Xã Phước Hưng",
						"fax": "",
						"members": []
					}
				]
			}
		]
	},
	{
		"province": "Yên Bái",
		"districts": [
			{
				"district": "Thị xã Nghĩa Lộ",
				"offices": [
					{
						"name": "Công Ty TNHH Thái Nhân An",
						"latitude": "",
						"longtitude": "",
						"tel": [
							{
								"region": "",
								"number": "(029) 3 871 868",
								"type": ""
							}
						],
						"address": "Số nhà 235, tổ dân phố 6, P. Tân An",
						"fax": "(029) 3 871 818",
						"members": []
					}
				]
			},
			{
				"district": "Thành phố Yên Bái",
				"offices": [
					{
						"name": "Công Ty TNHH Hoàng Phú Đức",
						"latitude": "",
						"longtitude": "",
						"tel": [
							{
								"region": "",
								"number": "(029) 3 890 875",
								"type": ""
							}
						],
						"address": "Số nhà 585, Đường Điện Biên, Tổ 41, P. Minh Tân",
						"fax": "(029) 3 890 876",
						"members": []
					}
				]
			},
			{
				"district": "Huyện Văn Yên",
				"offices": [
					{
						"name": "Chi nhánh An Lộc-công ty TNHH Thái Nhân An",
						"latitude": "",
						"longtitude": "",
						"tel": [
							{
								"region": "",
								"number": "(029) 6265666",
								"type": ""
							}
						],
						"address": "Số 169 đường Trần Quốc Toản, thị trấn Mậu A",
						"fax": "(029) 6265678",
						"members": []
					}
				]
			}
		]
	}
]